%time,field.header.seq,field.header.stamp,field.header.frame_id,field.position.translation.x,field.position.translation.y,field.position.translation.z,field.position.rotation.x,field.position.rotation.y,field.position.rotation.z,field.position.rotation.w,field.velocity.linear.x,field.velocity.linear.y,field.velocity.linear.z,field.velocity.angular.x,field.velocity.angular.y,field.velocity.angular.z,field.combined_linear_velocity,field.acceleration.linear.x,field.acceleration.linear.y,field.acceleration.linear.z,field.acceleration.angular.x,field.acceleration.angular.y,field.acceleration.angular.z
1575393324711198416,0,1575393324707055638,,0.158007874176,-1.86660812582,0.533816349035,0.596935862339,0.802288960571,-1.4615309082e-12,1.96427367118e-12,0.0,0.0,0.0,0.0,0.0,0.0,0.0,0.0,0.0,0.0,0.0,0.0,0.0
1575393324711205075,1,1575393325354267400,,0.143705273005,-1.90845910289,0.581627440236,0.609813719299,0.792544778297,-3.54943130173e-05,2.98174357697e-05,-0.0228517338034,-0.0624274226434,0.0747527342731,-0.000142984387055,-9.33428680223e-06,-0.0499038866424,0.100036773824,0.0,0.0,0.0,0.0,0.0,0.0
1575393324711208804,2,1575393326001479162,,0.128452777423,-1.94738825183,0.63053261733,0.622532661193,0.782593813643,-7.06181514928e-05,6.00761270666e-05,-0.0242616970717,-0.0578504945385,0.0763375060961,-0.000142969526406,-1.11331094081e-05,-0.0499043613046,0.0988065002929,0.0,0.0,0.0,0.0,0.0,0.0
1575393324711271968,3,1575393326648690925,,0.112326101506,-1.98331750499,0.680394074453,0.635089369655,0.772438653363,-0.000105359651954,9.07811176125e-05,-0.0255523662291,-0.053159369649,0.0777070830618,-0.000143001834232,-1.29688609619e-05,-0.0499048474923,0.0975563055848,0.0,0.0,0.0,0.0,0.0,0.0
1575393324711286188,4,1575393327295902687,,0.0954038358574,-2.01617718393,0.731071181824,0.647480567716,0.76208193788,-0.000139706566829,0.000121937393044,-0.0267195586824,-0.0483671755885,0.0788573755133,-0.000143081459895,-1.4841497683e-05,-0.0499053427826,0.096290208035,0.0,0.0,0.0,0.0,0.0,0.0
1575393324711292255,5,1575393327943114449,,0.0777671052415,-2.04590620474,0.782420842073,0.659703020676,0.751526360669,-0.000173646296951,0.000153549837452,-0.0277596284507,-0.0434873364233,0.0797848494375,-0.000143208559572,-1.67508357274e-05,-0.0499058447101,0.0950124602391,0.0,0.0,0.0,0.0,0.0,0.0
1575393324711402887,6,1575393328590326211,,0.0594992167965,-2.07245225624,0.834297852851,0.671753536983,0.740774667613,-0.000207165924827,0.000185623188655,-0.0286694796544,-0.0385335301851,0.0804865354642,-0.00014338329317,-1.86965489406e-05,-0.049906350776,0.0937275541301,0.0,0.0,0.0,0.0,0.0,0.0
1575393324711406458,7,1575393329237537973,,0.0406853002131,-2.09577195034,0.886555274802,0.683628969097,0.729829656355,-0.000240252249995,0.00021816199437,-0.0294465778758,-0.0335196455457,0.0809600364432,-0.000143605821165,-2.06781671448e-05,-0.0499068584579,0.0924402243993,0.0,0.0,0.0,0.0,0.0,0.0
1575393324711410645,8,1575393329884749736,,0.0214119412573,-2.11583094419,0.939044803971,0.695326214354,0.718694175624,-0.000272891826341,0.000251170569463,-0.030088959349,-0.0284597378004,0.0812035335832,-0.000143876301377,-2.26950749697e-05,-0.0499073652191,0.0911554497371,0.0,0.0,0.0,0.0,0.0,0.0
1575393324711413420,9,1575393330531961498,,0.00176681005705,-2.13260403358,0.991617147727,0.70684221582,0.707371124544,-0.000305071001233,0.000284652954455,0.0,0.0,0.0,0.0,0.0,0.0,0.0,0.0,0.0,0.0,0.0,0.0,0.0
1575393331210563383,10,1575393331207370749,,0.00176681005705,-2.13260403358,0.991617147727,0.70684221582,0.707371124544,-0.000305071001233,0.000284652954455,0.0,0.0,0.0,0.0,0.0,0.0,0.0,0.0,0.0,0.0,0.0,0.0,0.0
1575393331210569037,11,1575393331640371843,,0.0589147385377,-2.17352680196,0.947397670928,0.695328731392,0.718691743082,-0.00026125836335,0.000255871933395,0.134435197356,-0.0910994620851,-0.104234292362,0.000238066895164,-1.5489679871e-05,0.074580869519,0.192968189048,0.0,0.0,0.0,0.0,0.0,0.0
1575393331210573354,12,1575393332073372937,,0.118135322158,-2.21144315122,0.901368454693,0.683634112501,0.72982484302,-0.000218064708145,0.000226235593898,0.139037386651,-0.0839737803138,-0.108349307752,0.000238273730725,-1.06535380793e-05,0.0745799105253,0.195250001683,0.0,0.0,0.0,0.0,0.0,0.0
1575393331210577399,13,1575393332506374030,,0.179265189349,-2.24619839856,0.853586495466,0.671761415015,0.740767529105,-0.000175506232128,0.0001957503769,0.143250042413,-0.076502561024,-0.11232879743,0.000238389321065,-5.79472003248e-06,0.0745789520179,0.197461325901,0.0,0.0,0.0,0.0,0.0,0.0
1575393331210581121,14,1575393332939375124,,0.242130596131,-2.27764823498,0.804112127676,0.659713740955,0.75151695597,-0.000133599126167,0.000164423034569,0.147049986479,-0.0687106002613,-0.116165173825,0.00023841215829,-9.14746007805e-07,0.0745779944279,0.199597576944,0.0,0.0,0.0,0.0,0.0,0.0
1575393331210585085,15,1575393333372376218,,0.306548115192,-2.30565943583,0.753008916549,0.647494237686,0.762070328867,-9.23595684471e-05,0.0001322606329,0.150415688973,-0.0606242815013,-0.11985110404,0.00023834075452,3.9847835318e-06,0.0745770381861,0.201654333294,0.0,0.0,0.0,0.0,0.0,0.0
1575393331210588376,16,1575393333805377312,,0.372325373152,-2.33011052383,0.700343544818,0.635106097081,0.772424904384,-5.18037173103e-05,9.92705541437e-05,0.153327375813,-0.0522714619395,-0.123379523717,0.000238173645782,8.90218809375e-06,0.0745760837227,0.203627347818,0.0,0.0,0.0,0.0,0.0,0.0
1575393331210591504,17,1575393334238378406,,0.439261832667,-2.35089238126,0.64618569353,0.622552554684,0.782577991147,-1.19477039976e-05,6.54604990337e-05,0.155767128243,-0.0436813515179,-0.126743650403,0.000237909395891,1.3835707492e-05,0.0745751314672,0.205512558324,0.0,0.0,0.0,0.0,0.0,0.0
1575393331211659494,18,1575393334671379500,,0.507149615823,-2.36790880828,0.590607917185,0.609836888858,0.792526950518,2.71923747136e-05,3.08384888435e-05,0.157718973897,-0.0348843852533,-0.129936996377,0.000237546600331,1.87835023635e-05,0.0745741818483,0.207306097569,0.0,0.0,0.0,0.0,0.0,0.0
1575393331211665727,19,1575393335104380593,,0.575774365029,-2.38107702466,0.533685513439,-0.596962419923,-0.802269197262,-6.56004639657e-05,4.58713275771e-06,0.0,0.0,0.0,0.0,0.0,0.0,0.0,0.0,0.0,0.0,0.0,0.0,0.0
1575393335655624472,20,1575393335607108348,,0.575909277854,-2.38109072214,0.533816349035,0.596935862339,0.802288960571,-1.46148991681e-12,1.96424826995e-12,0.0,0.0,0.0,0.0,0.0,0.0,0.0,0.0,0.0,0.0,0.0,0.0,0.0
1575393335655632562,21,1575393336417488229,,0.567919211696,-2.37241412163,0.530877566024,0.5968760459,0.802333462988,-1.46134484735e-12,1.96438743705e-12,-0.013144339175,0.0142244308936,-0.00482395324486,-2.21961864846e-16,-5.47541095992e-17,9.20002575361e-05,0.0199594241275,0.0,0.0,0.0,0.0,0.0,0.0
1575393335655639875,22,1575393336903716158,,0.559929145537,-2.36373752112,0.527938783012,0.5968760459,0.802333462988,-1.46143385331e-12,1.964443557e-12,-0.0377829072149,0.0407048425458,-0.0138269056623,1.80176583504e-16,4.61839828648e-17,-4.85722573274e-17,0.0572329940199,0.0,0.0,0.0,0.0,0.0,0.0
1575393335655646638,23,1575393337038779472,,0.551939079378,-2.35506092061,0.525,0.5968760459,0.802333462988,-1.46136967587e-12,1.96437013424e-12,-0.0634671966421,0.0691005885146,-0.0108898475479,-3.46548602677e-16,-7.87410331804e-17,5.20417042793e-17,0.0944540373001,0.0,0.0,0.0,0.0,0.0,0.0
1575393335655655218,24,1575393337109550115,,0.547145039683,-2.34985496031,0.525,0.5968760459,0.802333462988,-1.46137991143e-12,1.96439601828e-12,-0.0677423944237,0.0735678289876,-1.65221219644e-06,4.25305184538e-19,8.64011464202e-18,-2.39391839685e-16,0.100006287137,0.0,0.0,0.0,0.0,0.0,0.0
1575393335655661610,25,1575393337180320758,,0.542350999988,-2.344649,0.525,0.5968760459,0.802333462988,-1.46135229522e-12,1.96437227654e-12,-0.0677400062109,0.0737006454025,-4.80702750433e-05,-7.76871314226e-16,-1.80411241502e-16,-2.91433543964e-16,0.100102426968,0.0,0.0,0.0,0.0,0.0,0.0
1575393335655666698,26,1575393337215026679,,0.539999999988,-2.342096,0.525,0.5968760459,0.802333462988,-1.46142426995e-12,1.9644219087e-12,-0.0681263592212,0.0729526071794,8.99201712115e-05,-1.05485620501e-15,-2.33038504592e-16,1.28369537222e-16,0.0998162902569,0.0,0.0,0.0,0.0,0.0,0.0
1575393335655673869,27,1575393337321822366,,0.532684999988,-2.334315,0.525,0.5968760459,0.802333462988,-1.46140526169e-12,1.96439600084e-12,-0.0681045309084,0.0732588597354,-1.06981375644e-05,5.27210746255e-16,1.24915213915e-16,6.24500451352e-17,0.100025435637,0.0,0.0,0.0,0.0,0.0,0.0
1575393335655698510,28,1575393337421228395,,0.525953999988,-2.327,0.525,0.5968760459,0.802333462988,-1.4613521491e-12,1.96437440554e-12,-0.0662213586711,0.075098034566,-7.03119305835e-05,1.30465176795e-15,2.87964097012e-16,-3.98986399475e-16,0.100124862465,0.0,0.0,0.0,0.0,0.0,0.0
1575393335655748479,29,1575393337463468407,,0.523218999988,-2.323781,0.525,0.5968760459,0.802333462988,-1.46133604039e-12,1.96438300616e-12,-0.0645111169148,0.0763832192789,9.94762264028e-06,-8.45872751234e-16,-1.91895270426e-16,-5.20417042793e-17,0.0999804005391,0.0,0.0,0.0,0.0,0.0,0.0
1575393335655769208,30,1575393337513552865,,0.519999999988,-2.319944,0.525,0.5968760459,0.802333462988,-1.46144165262e-12,1.9644153648e-12,-0.064635145987,0.0761720669616,5.10411881745e-05,-1.56791912084e-15,-3.48465560289e-16,2.77555756156e-16,0.0998993918257,0.0,0.0,0.0,0.0,0.0,0.0
1575393335655773455,31,1575393337605360076,,0.514033999988,-2.312966,0.525,0.5968760459,0.802333462988,-1.46140645449e-12,1.96441104664e-12,-0.0646109472727,0.0763743246079,-1.82334576808e-05,-1.11022302462e-16,-2.27523857958e-17,-1.73472347598e-16,0.100038054256,0.0,0.0,0.0,0.0,0.0,0.0
1575393335655808669,32,1575393337683208106,,0.509032999988,-2.307,0.525,0.5968760459,0.802333462988,-1.46142568861e-12,1.96444555522e-12,-0.0627094218149,0.0779102324436,-1.48063401802e-05,-1.52707887206e-15,-3.35828095674e-16,2.56739074445e-16,0.100012379849,0.0,0.0,0.0,0.0,0.0,0.0
1575393335655820319,33,1575393337747599292,,0.505092999988,-2.301907,0.525,0.5968760459,0.802333462988,-1.46145101708e-12,1.96443908129e-12,-0.0609325294482,0.0792340223788,2.44627180756e-05,-2.22670794281e-16,-4.47965144711e-17,2.671474153e-16,0.0999540096529,0.0,0.0,0.0,0.0,0.0,0.0
1575393335655853306,34,1575393337831544261,,0.499999999988,-2.295234,0.525,0.5968760459,0.802333462988,-1.46139716238e-12,1.96440238776e-12,-0.0609992884795,0.0793254075747,-3.3934998294e-05,-2.77555756156e-16,-5.47222416303e-17,-3.98986399475e-16,0.100067150621,0.0,0.0,0.0,0.0,0.0,0.0
1575393335655870703,35,1575393337890226478,,0.496400999988,-2.290599,0.525,0.5968760459,0.802333462988,-1.4614264812e-12,1.96445846173e-12,-0.0609853685548,0.0792924715066,-1.69277788476e-05,2.62917551567e-16,6.13014308778e-17,3.81639164715e-16,0.100032552211,0.0,0.0,0.0,0.0,0.0,0.0
1575393335655876749,36,1575393337935489958,,0.493655999988,-2.287,0.525,0.5968760459,0.802333462988,-1.46142378376e-12,1.96441964265e-12,-0.0590628559234,0.0805088547821,6.93937293482e-05,1.19300637684e-15,2.58871348057e-16,5.41233724505e-16,0.0998503954106,0.0,0.0,0.0,0.0,0.0,0.0
1575393335655879985,37,1575393338033517730,,0.488021999988,-2.278978,0.525,0.5968760459,0.802333462988,-1.46138055044e-12,1.9644109804e-12,-0.0572220093978,0.0818947468078,5.2956137875e-05,3.88578058619e-16,8.81225651722e-17,-3.12250225676e-16,0.0999055089501,0.0,0.0,0.0,0.0,0.0,0.0
1575393335655888138,38,1575393338174364956,,0.479999999988,-2.267401,0.525,0.5968760459,0.802333462988,-1.46137119754e-12,1.96439585582e-12,-0.0571075463079,0.0824914884688,-0.000176446336846,-1.84709872143e-14,-3.90740303687e-15,1.66186508999e-14,0.100330198088,0.0,0.0,0.0,0.0,0.0,0.0
1575393335655891726,39,1575393338177244557,,0.479834999988,-2.267165,0.525,0.5968760459,0.802333462988,-1.46139929417e-12,1.96443900803e-12,-0.0572392877642,0.0820003734967,-1.09243175608e-06,-1.88188644497e-14,-3.98405781863e-15,6.51909082272e-15,0.100001986573,0.0,0.0,0.0,0.0,0.0,0.0
1575393335655898547,40,1575393338179255776,,0.479719999988,-2.267,0.525,0.5968760459,0.802333462988,-1.46136326637e-12,1.96441096006e-12,-0.0554160180286,0.0828100180818,0.000182093431262,7.6327832943e-16,1.63508053391e-16,-1.03493602577e-14,0.0996416946206,0.0,0.0,0.0,0.0,0.0,0.0
1575393335655903183,41,1575393338322122987,,0.472058999988,-2.254941,0.525,0.5968760459,0.802333462988,-1.46135094831e-12,1.9643613707e-12,-0.0533605585963,0.08472217431,-6.50461827776e-05,1.66848516295e-16,3.46944695195e-17,5.20417042793e-18,0.100125922041,0.0,0.0,0.0,0.0,0.0,0.0
1575393335655908675,42,1575393338415840654,,0.467081999988,-2.247,0.525,0.5968760459,0.802333462988,-1.46135239151e-12,1.96437643406e-12,-0.0513253306464,0.085913344592,-5.2341709363e-05,4.86118839571e-16,9.71445146547e-17,5.36029554077e-16,0.10007694582,0.0,0.0,0.0,0.0,0.0,0.0
1575393335655915562,43,1575393338467755401,,0.464508999988,-2.242491,0.525,0.5968760459,0.802333462988,-1.46136967385e-12,1.96437859197e-12,-0.0493837412849,0.086850050613,5.13395097255e-05,-1.17681763812e-16,-2.70104221385e-17,7.97972798949e-17,0.0999083971973,0.0,0.0,0.0,0.0,0.0,0.0
1575393335655919056,44,1575393338559404472,,0.459999999988,-2.234512,0.525,0.5968760459,0.802333462988,-1.46142612864e-12,1.96443892007e-12,-0.0494192099718,0.0870378726089,-4.85803709734e-05,-1.2005224907e-15,-2.4159295974e-16,-2.01227923213e-16,0.100089219912,0.0,0.0,0.0,0.0,0.0,0.0
1575393335655923007,45,1575393338614457292,,0.457266999988,-2.229733,0.525,0.5968760459,0.802333462988,-1.46144190586e-12,1.96442168435e-12,-0.0493887084575,0.0870152937491,-3.0589425335e-05,1.73462927377e-15,3.59386400837e-16,4.75314232418e-16,0.100054519164,0.0,0.0,0.0,0.0,0.0,0.0
1575393335655927502,46,1575393338645837307,,0.455724999988,-2.227,0.525,0.5968760459,0.802333462988,-1.4613523274e-12,1.96438073993e-12,-0.0473228445191,0.0878457244778,0.000112809190797,7.98148324017e-16,1.63064006742e-16,1.63064006742e-16,0.099781439398,0.0,0.0,0.0,0.0,0.0,0.0
1575393335655930027,47,1575393338762707651,,0.450406999988,-2.216593,0.525,0.5968760459,0.802333462988,-1.46140891108e-12,1.96444537959e-12,-0.0453195367803,0.0891738217804,-1.35923458547e-05,9.68174335601e-17,2.27791682796e-17,-1.87350135405e-16,0.100029151199,0.0,0.0,0.0,0.0,0.0,0.0
1575393335655933055,48,1575393338870210001,,0.445554999988,-2.207,0.525,0.5968760459,0.802333462988,-1.46135227264e-12,1.96438072474e-12,-0.0431933390941,0.0903306397131,-8.47090910155e-05,1.02016819082e-15,2.08166817117e-16,2.04697370165e-16,0.100126401057,0.0,0.0,0.0,0.0,0.0,0.0
1575393335655948893,49,1575393338912180411,,0.443822999988,-2.203177,0.525,0.5968760459,0.802333462988,-1.46136956075e-12,1.96438072238e-12,-0.0411307531227,0.0910242100853,6.73639946677e-05,-5.9660689461e-16,-1.19143995337e-16,5.55111512313e-16,0.0998856857212,0.0,0.0,0.0,0.0,0.0,0.0
1575393335655953126,50,1575393339005436705,,0.439999999989,-2.194671,0.525,0.5968760459,0.802333462988,-1.4613695416e-12,1.96438504139e-12,-0.0411555170732,0.0912288868552,-4.72605640572e-05,3.46944695195e-16,6.99449402668e-17,-1.38777878078e-17,0.100082409124,0.0,0.0,0.0,0.0,0.0,0.0
1575393335655955812,51,1575393339063383202,,0.437605999989,-2.189394,0.525,0.5968760459,0.802333462988,-1.46137278736e-12,1.96441947793e-12,-0.0411381501735,0.0912232937537,-4.16344701364e-05,3.0114799543e-15,6.04242203033e-16,-2.39391839685e-16,0.100070167664,0.0,0.0,0.0,0.0,0.0,0.0
1575393335655960145,52,1575393339089626032,,0.436530999989,-2.187,0.525,0.5968760459,0.802333462988,-1.46135222721e-12,1.96437206408e-12,-0.0389759888854,0.0918261104332,0.000134247973166,1.6448958519e-15,3.29597460436e-16,1.11022302463e-16,0.0997556027971,0.0,0.0,0.0,0.0,0.0,0.0
1575393335655979796,53,1575393339216879466,,0.431821999989,-2.175178,0.525,0.5968760459,0.802333462988,-1.46133160615e-12,1.96434194701e-12,-0.0368828200003,0.0930486634774,-5.30319689074e-05,-1.04060807178e-15,-2.06884121248e-16,-1.26634813746e-16,0.100091952716,0.0,0.0,0.0,0.0,0.0,0.0
1575393335655983319,54,1575393339304814389,,0.428589999989,-2.167,0.525,0.5968760459,0.802333462988,-1.46140574485e-12,1.96440440574e-12,-0.0367951051947,0.092736466047,0.000149604846043,-6.03740635192e-16,-1.20065870059e-16,-2.02962646689e-16,0.099769505776,0.0,0.0,0.0,0.0,0.0,0.0
1575393335655987085,55,1575393339508088723,,0.421101999989,-2.148102,0.525,0.5968760459,0.802333462988,-1.46140912408e-12,1.96443665931e-12,-0.0368895503725,0.0933697366431,-0.00025118477508,-6.9388939039e-18,-2.08188510053e-18,-1.71911096469e-15,0.100393275379,0.0,0.0,0.0,0.0,0.0,0.0
1575393335655989853,56,1575393339519947256,,0.420663999989,-2.147,0.525,0.5968760459,0.802333462988,-1.46144372072e-12,1.96444098247e-12,-0.0390403528467,0.0920276396777,5.15751117873e-06,3.37911055182e-15,6.63545231984e-16,-8.93382590128e-16,0.0999661724867,0.0,0.0,0.0,0.0,0.0,0.0
1575393335656006352,57,1575393339536086454,,0.419999999989,-2.145529,0.525,0.5968760459,0.802333462988,-1.46137114437e-12,1.96440222989e-12,-0.0412033123291,0.0907373200765,0.000237368351089,3.08086889333e-15,6.04267872834e-16,8.9685203708e-16,0.0996545560689,0.0,0.0,0.0,0.0,0.0,0.0
1575393335656009514,58,1575393339739457673,,0.411616999989,-2.127,0.525,0.5968760459,0.802333462988,-1.46139016775e-12,1.96442158659e-12,-0.0432896450118,0.090167493903,-2.35611878534e-05,-5.48253874398e-16,-1.0451803621e-16,-3.46944695195e-18,0.100020852212,0.0,0.0,0.0,0.0,0.0,0.0
1575393335656013844,59,1575393339930735175,,0.402948999989,-2.109949,0.525,0.5968760459,0.802333462988,-1.46144386801e-12,1.96444309492e-12,-0.045311781048,0.0894402547867,-0.000195351142861,1.38057116299e-15,2.67260953533e-16,1.78676518026e-16,0.100263427231,0.0,0.0,0.0,0.0,0.0,0.0
1575393335656023985,60,1575393339963829895,,0.401446999989,-2.107,0.525,0.5968760459,0.802333462988,-1.46140750378e-12,1.96441939962e-12,-0.047399912985,0.0880315587439,-5.74683318125e-06,3.50414142147e-15,6.70204462223e-16,-2.42861286637e-17,0.0999815338895,0.0,0.0,0.0,0.0,0.0,0.0
1575393335656026413,61,1575393339993114575,,0.399999999989,-2.104454,0.525,0.5968760459,0.802333462988,-1.46139200449e-12,1.96443443749e-12,-0.0495179677623,0.0867143498834,0.000116803581761,2.28300122367e-15,4.37097661085e-16,-1.80411241502e-16,0.0998570040112,0.0,0.0,0.0,0.0,0.0,0.0
1575393335656031545,62,1575393340121066361,,0.393659999989,-2.09334,0.525,0.5968760459,0.802333462988,-1.46133652407e-12,1.96439353053e-12,-0.0494018225914,0.0870399566001,-6.56082503388e-05,-1.07510552242e-15,-2.02073988575e-16,3.41740524767e-16,0.100082458127,0.0,0.0,0.0,0.0,0.0,0.0
1575393335656033941,63,1575393340193934780,,0.390067999989,-2.087,0.525,0.5968760459,0.802333462988,-1.46142300394e-12,1.9644064957e-12,-0.0513996731205,0.0857504729116,-3.21465167938e-06,-7.4962781704e-16,-1.35141471395e-16,-3.78169717763e-16,0.0999753470201,0.0,0.0,0.0,0.0,0.0,0.0
1575393335656043603,64,1575393340266900960,,0.386164999989,-2.080835,0.525,0.5968760459,0.802333462988,-1.46136737669e-12,1.96436560928e-12,-0.0534203493354,0.0844749529233,4.84823265894e-05,7.49522212706e-16,1.38016523276e-16,-4.85722573274e-16,0.0999487555953,0.0,0.0,0.0,0.0,0.0,0.0
1575393335656047947,65,1575393340382552786,,0.379999999989,-2.07105,0.525,0.5968760459,0.802333462988,-1.46135000263e-12,1.96435911731e-12,-0.0533747772004,0.0846920001343,-9.86664208941e-05,-1.85219412922e-15,-3.38271077815e-16,6.52256026967e-16,0.100107998996,0.0,0.0,0.0,0.0,0.0,0.0
1575393335656050579,66,1575393340411901520,,0.378428999989,-2.068571,0.525,0.5968760459,0.802333462988,-1.46138839634e-12,1.9643999842e-12,-0.0533579100952,0.0845903942549,-1.22197080564e-05,4.01080363661e-15,7.37490116232e-16,1.22471477404e-15,0.10001300675,0.0,0.0,0.0,0.0,0.0,0.0
1575393335656061487,67,1575393340430454714,,0.377441999989,-2.067,0.525,0.5968760459,0.802333462988,-1.46129807994e-12,1.96435695293e-12,-0.0553294220043,0.0831212611612,0.000115251792031,5.89177311265e-15,1.06719388117e-15,3.60822483003e-16,0.0998524024716,0.0,0.0,0.0,0.0,0.0,0.0
1575393335656063931,68,1575393340555698893,,0.370261999989,-2.056738,0.525,0.5968760459,0.802333462988,-1.46136913054e-12,1.96438278046e-12,-0.0572308364229,0.0820170292155,-7.46125126904e-06,-9.29673012008e-16,-1.69760093459e-16,-2.15105711021e-16,0.100010808289,0.0,0.0,0.0,0.0,0.0,0.0
1575393335656074407,69,1575393340674356824,,0.363481999989,-2.047,0.525,0.5968760459,0.802333462988,-1.46139037651e-12,1.96442145596e-12,-0.0590227833415,0.080805642634,-0.00010359753731,-9.43836378304e-16,-1.66786620946e-16,7.35522753814e-16,0.100066235901,0.0,0.0,0.0,0.0,0.0,0.0
1575393335656076640,70,1575393340699184860,,0.361966999989,-2.045033,0.525,0.5968760459,0.802333462988,-1.46142698646e-12,1.9644386311e-12,-0.0609715312214,0.0792538588838,7.75818250237e-06,-7.09333779287e-18,6.05395757653e-19,1.28369537222e-16,0.0999935089276,0.0,0.0,0.0,0.0,0.0,0.0
1575393335656081047,71,1575393340731476980,,0.359999999989,-2.042472,0.525,0.5968760459,0.802333462988,-1.46142094456e-12,1.9643914131e-12,-0.0610338735711,0.079129631583,8.05517986304e-05,4.78318235672e-16,8.82314596214e-17,-4.30211422042e-16,0.0999331717007,0.0,0.0,0.0,0.0,0.0,0.0
1575393335656087543,72,1575393340841794431,,0.353265999989,-2.033734,0.525,0.5968760459,0.802333462988,-1.46138836301e-12,1.96439776557e-12,-0.0609295423318,0.0793242102571,-2.6421222162e-05,4.92973790169e-16,8.5765310782e-17,8.32667268469e-17,0.100023697991,0.0,0.0,0.0,0.0,0.0,0.0
1575393335656093024,73,1575393340926655289,,0.348101999989,-2.027,0.525,0.5968760459,0.802333462988,-1.46135166551e-12,1.9643784226e-12,-0.062703441925,0.0778945643644,-3.1585379983e-05,-1.90770376795e-15,-3.30464822174e-16,1.97758476261e-16,0.0999964288582,0.0,0.0,0.0,0.0,0.0,0.0
1575393335656100485,74,1575393340984144149,,0.344388999989,-2.022611,0.525,0.5968760459,0.802333462988,-1.46142506511e-12,1.96441707371e-12,-0.0645593671704,0.0763596103718,1.02661858093e-05,-2.91261650586e-16,-5.00105631239e-17,1.2490009027e-16,0.0999935102443,0.0,0.0,0.0,0.0,0.0,0.0
1575393335656102969,75,1575393341052175410,,0.339999999989,-2.017413,0.525,0.5968760459,0.802333462988,-1.46138619391e-12,1.96437624851e-12,-0.0645771303674,0.0763494274813,5.43734134639e-06,1.60357626619e-15,2.67312427641e-16,-6.93889390391e-18,0.0999972043248,0.0,0.0,0.0,0.0,0.0,0.0
1575393335656108283,76,1575393341126058878,,0.335224999989,-2.011775,0.525,0.5968760459,0.802333462988,-1.46138833698e-12,1.96440204866e-12,-0.0645258047104,0.0764073197484,-1.11304084594e-05,6.93889390392e-18,1.79007848919e-19,-4.37150315946e-16,0.100008290199,0.0,0.0,0.0,0.0,0.0,0.0
1575393335656114618,77,1575393341188503414,,0.331200999989,-2.007,0.525,0.5968760459,0.802333462988,-1.46142292457e-12,1.96439771537e-12,-0.0662549206321,0.0748550472267,1.17430120546e-05,-2.0453846058e-17,6.01200031556e-19,-2.70616862252e-16,0.099964957566,0.0,0.0,0.0,0.0,0.0,0.0
1575393335656122434,78,1575393341267761313,,0.325808999989,-2.001191,0.525,0.5968760459,0.802333462988,-1.46139056843e-12,1.96442566389e-12,-0.0680088780712,0.0733103657561,5.55515227445e-06,-1.44460100258e-17,-4.38928455957e-19,1.38777878078e-17,0.099998086255,0.0,0.0,0.0,0.0,0.0,0.0
1575393335656124925,79,1575393341353220253,,0.31999999999,-1.994923,0.525,0.5968760459,0.802333462988,-1.46140561052e-12,1.96440633824e-12,-0.0680039153612,0.0733385124788,-2.72440087547e-05,-3.81421627681e-19,2.84233605648e-18,7.6327832943e-17,0.100015352118,0.0,0.0,0.0,0.0,0.0,0.0
1575393335656130565,80,1575393341409281581,,0.31618299999,-1.990817,0.525,0.5968760459,0.802333462988,-1.46138830776e-12,1.96439984336e-12,-0.0679878370846,0.0733356233491,-3.64748275461e-06,-6.74735290147e-18,-4.04790913219e-19,-2.42861286637e-17,0.100002298257,0.0,0.0,0.0,0.0,0.0,0.0
1575393335656133621,81,1575393341461272339,,0.31265299999,-1.987,0.525,0.5968760459,0.802333462988,-1.46136866848e-12,1.96438053519e-12,-0.0696514205364,0.07169698725,2.88308779885e-05,-6.54107074844e-18,-1.01079259215e-18,-1.17961196366e-16,0.0999588875222,0.0,0.0,0.0,0.0,0.0,0.0
1575393335656138591,82,1575393341550746003,,0.30627099999,-1.980729,0.525,0.5968760459,0.802333462988,-1.46135131581e-12,1.9643805271e-12,-0.0713131034822,0.0701056022986,-1.51361347695e-06,2.12304863086e-17,-1.73472347598e-18,4.64905891562e-16,0.100001771005,0.0,0.0,0.0,0.0,0.0,0.0
1575393335656143428,83,1575393341638699019,,0.29999999999,-1.974562,0.525,0.5968760459,0.802333462988,-1.46137098484e-12,1.96440196929e-12,-0.0713064074751,0.0701267860647,-2.96609318031e-05,1.38777878078e-17,1.66664315362e-18,-1.97758476261e-16,0.10001185305,0.0,0.0,0.0,0.0,0.0,0.0
1575393335656146985,84,1575393341692172857,,0.29618299999,-1.970817,0.525,0.5968760459,0.802333462988,-1.46138582016e-12,1.96438700136e-12,-0.0713033134288,0.0701131185569,8.32491047743e-07,-7.14811618003e-18,-3.59133748571e-18,-5.20417042793e-16,0.100000059502,0.0,0.0,0.0,0.0,0.0,0.0
1575393335656151512,85,1575393341746550811,,0.29230999999,-1.967,0.525,0.5968760459,0.802333462988,-1.46136848885e-12,1.96437834859e-12,-0.072883099438,0.0684194542846,2.23951054745e-05,7.58826857142e-18,-8.7041943397e-19,0.0,0.0999658362134,0.0,0.0,0.0,0.0,0.0,0.0
1575393335656158224,86,1575393341833726030,,0.28581799999,-1.961182,0.525,0.5968760459,0.802333462988,-1.46136589843e-12,1.96436123093e-12,-0.0744681407196,0.0667458862287,-7.39861812367e-06,-2.79655742075e-18,-1.67507486878e-18,0.0,0.100002586794,0.0,0.0,0.0,0.0,0.0,0.0
1575393335656161431,87,1575393341911837532,,0.27999999999,-1.95597,0.525,0.5968760459,0.802333462988,-1.46136837642e-12,1.96438049757e-12,-0.0744875514477,0.0667250082397,-1.16803294742e-05,7.39036742228e-18,-2.53091461649e-18,0.0,0.10000311086,0.0,0.0,0.0,0.0,0.0,0.0
1575393335656164281,88,1575393341975362686,,0.27526599999,-1.951734,0.525,0.5968760459,0.802333462988,-1.46138823966e-12,1.96439975374e-12,-0.0744810264723,0.0667267466032,5.74178588766e-06,2.26828312905e-19,1.02716779222e-18,6.93889390391e-18,0.0999994102462,0.0,0.0,0.0,0.0,0.0,0.0
1575393335656170888,89,1575393342046240314,,0.26999099999,-1.947,0.525,0.5968760459,0.802333462988,-1.46135098711e-12,1.96438265013e-12,-0.0759362081664,0.0650271804656,-4.4719733997e-06,-3.23545498546e-18,-5.20417042793e-18,-2.01227923213e-16,0.0999742063234,0.0,0.0,0.0,0.0,0.0,0.0
1575393335656175480,90,1575393342117245289,,0.26449199999,-1.942508,0.525,0.5968760459,0.802333462988,-1.46136554011e-12,1.96436339716e-12,-0.077471084945,0.063233141793,-9.64660358856e-06,-1.89036558065e-15,-2.5871016962e-16,2.8449465006e-16,0.100000996578,0.0,0.0,0.0,0.0,0.0,0.0
1575393335656181273,91,1575393342175188074,,0.25999999999,-1.938848,0.525,0.5968760459,0.802333462988,-1.46142825908e-12,1.96444036953e-12,-0.077545551809,0.0631399017056,1.86352864487e-05,-5.93761140691e-16,-7.50616554708e-17,4.71844785466e-16,0.0999998006999,0.0,0.0,0.0,0.0,0.0,0.0
1575393335656184959,92,1575393342259398982,,0.25347299999,-1.933527,0.525,0.5968760459,0.802333462988,-1.46138264702e-12,1.96436123999e-12,-0.0775134222979,0.0631806735012,1.33157305346e-05,1.315653153e-15,1.73477263571e-16,-6.93889390391e-18,0.100000641587,0.0,0.0,0.0,0.0,0.0,0.0
1575393335656190932,93,1575393342362631600,,0.24547499999,-1.927,0.525,0.5968760459,0.802333462988,-1.46139102536e-12,1.96441675553e-12,-0.0787994016224,0.0615233358489,-4.8197147469e-05,1.75986804416e-17,1.85472656436e-18,-3.53883589099e-16,0.0999723405397,0.0,0.0,0.0,0.0,0.0,0.0
1575393335656195987,94,1575393342401763986,,0.24233399999,-1.924666,0.525,0.5968760459,0.802333462988,-1.46136801969e-12,1.96438046712e-12,-0.0803315818984,0.0595539375997,-6.70168534729e-06,5.16967326165e-19,-3.13630112331e-18,-3.60822483003e-16,0.0999991728908,0.0,0.0,0.0,0.0,0.0,0.0
1575393335656200449,95,1575393342430786703,,0.23999999999,-1.922941,0.525,0.5968760459,0.802333462988,-1.46136799686e-12,1.96438478995e-12,-0.0804707944999,0.0593808779558,5.46254673281e-05,1.05984680658e-29,-1.82640645613e-18,6.93889390391e-18,0.100008201755,0.0,0.0,0.0,0.0,0.0,0.0
1575393335656205671,96,1575393342544742434,,0.23084599999,-1.916154,0.525,0.5968760459,0.802333462988,-1.46137086212e-12,1.96439750349e-12,-0.0803835202618,0.0594910742505,1.265153102e-05,1.44004731211e-17,-2.24606743666e-18,-1.04083408559e-16,0.100003491965,0.0,0.0,0.0,0.0,0.0,0.0
1575393335656212398,97,1575393342679663278,,0.21999999999,-1.908129,0.525,0.5968760459,0.802333462988,-1.46134746033e-12,1.96436559175e-12,-0.080248265498,0.0596433759586,-8.10006696666e-05,2.63314903494e-19,-4.33680868994e-18,5.05151476204e-15,0.0999856138266,0.0,0.0,0.0,0.0,0.0,0.0
1575393335656215062,98,1575393342687735458,,0.21935099999,-1.907649,0.525,0.5968760459,0.802333462988,-1.46136779286e-12,1.96438694289e-12,-0.0803622060718,0.0595145549204,1.80886275518e-06,-7.20282253939e-18,-4.393783951e-18,1.32532873565e-15,0.100000332076,0.0,0.0,0.0,0.0,0.0,0.0
1575393335656217823,99,1575393342698629613,,0.21847599999,-1.907,0.525,0.5968760459,0.802333462988,-1.46137083864e-12,1.96439964337e-12,-0.0817893457116,0.0575231033841,6.91060431895e-05,7.20897216288e-18,-3.47722522521e-18,-3.71230823859e-15,0.0999920460363,0.0,0.0,0.0,0.0,0.0,0.0
1575393335656222949,100,1575393342831755962,,0.20742899999,-1.899571,0.525,0.5968760459,0.802333462988,-1.46136767254e-12,1.96438261589e-12,-0.0830372272304,0.0557056461328,-2.59460443239e-05,1.06861327698e-17,-2.9818351168e-18,1.04083408559e-16,0.0999915035909,0.0,0.0,0.0,0.0,0.0,0.0
1575393335656225596,101,1575393342921054376,,0.19999999999,-1.894616,0.525,0.5968760459,0.802333462988,-1.46135350596e-12,1.96439745012e-12,-0.0831734552651,0.055511379465,-9.91685951915e-06,4.02951641073e-18,-3.90312782095e-18,3.88578058619e-16,0.099996684991,0.0,0.0,0.0,0.0,0.0,0.0
1575393335656229649,102,1575393342993162283,,0.194001124874,-1.89061487512,0.525,0.5968760459,0.802333462988,-1.46136428015e-12,1.96436562738e-12,-0.0831932797411,0.0554882205112,-2.26231565281e-07,1.41592610015e-17,-2.51870400949e-18,0.0,0.100000322048,0.0,0.0,0.0,0.0,0.0,0.0
1575393335656232413,103,1575393343065270190,,0.188002249758,-1.88661375024,0.525,0.5968760459,0.802333462988,-1.46136416872e-12,1.96436347534e-12,-0.0780007792702,0.0519552031799,0.0107431984251,9.20403370446e-18,-2.63579481223e-19,-3.95516952523e-16,0.0943338805341,0.0,0.0,0.0,0.0,0.0,0.0
1575393335656237556,104,1575393343202737762,,0.178004124564,-1.87994520876,0.527938783012,0.5968760459,0.802333462988,-1.4613673706e-12,1.96438261737e-12,-0.0463779877646,0.0310930935309,0.0135898260503,-7.86420564646e-18,-1.52069715475e-18,5.89805981832e-17,0.0574663517764,0.0,0.0,0.0,0.0,0.0,0.0
1575393335656241826,105,1575393343697621018,,0.16800599937,-1.87327666729,0.530877566024,0.5968760459,0.802333462988,-1.46136726656e-12,1.9643804586e-12,-0.0161486802817,0.0107954059672,0.00474013243178,-4.31791341194e-19,-4.66780339272e-19,-9.03912066055e-05,0.0199947373153,0.0,0.0,0.0,0.0,0.0,0.0
1575393335656244088,106,1575393344522426445,,0.158007874176,-1.86660812582,0.533816349035,0.596935862339,0.802288960571,-1.4615309082e-12,1.96427367118e-12,0.0,0.0,0.0,0.0,0.0,0.0,0.0,0.0,0.0,0.0,0.0,0.0,0.0
