%time,field.header.seq,field.header.stamp,field.header.frame_id,field.name0,field.name1,field.name2,field.name3,field.name4,field.name5,field.position0,field.position1,field.position2,field.position3,field.position4,field.position5
1572621635375012974,689,1572621635374469995,,kr210_joint_a1,kr210_joint_a2,kr210_joint_a3,kr210_joint_a4,kr210_joint_a5,kr210_joint_a6,1.46562354524,-1.12983999507,1.57694254017,-9.3090070776e-18,1.1236937817,0.186270719248
1572621635475844901,690,1572621635474608898,,kr210_joint_a1,kr210_joint_a2,kr210_joint_a3,kr210_joint_a4,kr210_joint_a5,kr210_joint_a6,1.46562354524,-1.12983999507,1.57694254017,-9.3090070776e-18,1.1236937817,0.186270719248
1572621635575283015,691,1572621635574629068,,kr210_joint_a1,kr210_joint_a2,kr210_joint_a3,kr210_joint_a4,kr210_joint_a5,kr210_joint_a6,1.46562354524,-1.12983999507,1.57694254017,-9.3090070776e-18,1.1236937817,0.186270719248
1572621635675411998,692,1572621635674695014,,kr210_joint_a1,kr210_joint_a2,kr210_joint_a3,kr210_joint_a4,kr210_joint_a5,kr210_joint_a6,1.46562354524,-1.12983999507,1.57694254017,-9.3090070776e-18,1.1236937817,0.186270719248
1572621635776261292,693,1572621635774616956,,kr210_joint_a1,kr210_joint_a2,kr210_joint_a3,kr210_joint_a4,kr210_joint_a5,kr210_joint_a6,1.46562354524,-1.12983999507,1.57694254017,-9.3090070776e-18,1.1236937817,0.186270719248
1572621635875650487,694,1572621635874663114,,kr210_joint_a1,kr210_joint_a2,kr210_joint_a3,kr210_joint_a4,kr210_joint_a5,kr210_joint_a6,1.46562354524,-1.12983999507,1.57694254017,-9.3090070776e-18,1.1236937817,0.186270719248
1572621635975347019,695,1572621635974643945,,kr210_joint_a1,kr210_joint_a2,kr210_joint_a3,kr210_joint_a4,kr210_joint_a5,kr210_joint_a6,1.46562354524,-1.12983999507,1.57694254017,-9.3090070776e-18,1.1236937817,0.186270719248
1572621636074911147,696,1572621636074520111,,kr210_joint_a1,kr210_joint_a2,kr210_joint_a3,kr210_joint_a4,kr210_joint_a5,kr210_joint_a6,1.46562354524,-1.12983999507,1.57694254017,-9.3090070776e-18,1.1236937817,0.186270719248
1572621636174742479,697,1572621636174412965,,kr210_joint_a1,kr210_joint_a2,kr210_joint_a3,kr210_joint_a4,kr210_joint_a5,kr210_joint_a6,1.46562354524,-1.12983999507,1.57694254017,-9.3090070776e-18,1.1236937817,0.186270719248
1572621636274636976,698,1572621636274399995,,kr210_joint_a1,kr210_joint_a2,kr210_joint_a3,kr210_joint_a4,kr210_joint_a5,kr210_joint_a6,1.46562354524,-1.12983999507,1.57694254017,-9.3090070776e-18,1.1236937817,0.186270719248
1572621636375008481,699,1572621636374440908,,kr210_joint_a1,kr210_joint_a2,kr210_joint_a3,kr210_joint_a4,kr210_joint_a5,kr210_joint_a6,1.46562354524,-1.12983999507,1.57694254017,-9.3090070776e-18,1.1236937817,0.186270719248
1572621636474700088,700,1572621636474397897,,kr210_joint_a1,kr210_joint_a2,kr210_joint_a3,kr210_joint_a4,kr210_joint_a5,kr210_joint_a6,1.46562354524,-1.12983999507,1.57694254017,-9.3090070776e-18,1.1236937817,0.186270719248
1572621636575014307,701,1572621636574403047,,kr210_joint_a1,kr210_joint_a2,kr210_joint_a3,kr210_joint_a4,kr210_joint_a5,kr210_joint_a6,1.46562354524,-1.12983999507,1.57694254017,-9.3090070776e-18,1.1236937817,0.186270719248
1572621636674730254,702,1572621636674417018,,kr210_joint_a1,kr210_joint_a2,kr210_joint_a3,kr210_joint_a4,kr210_joint_a5,kr210_joint_a6,1.46562354524,-1.12983999507,1.57694254017,-9.3090070776e-18,1.1236937817,0.186270719248
1572621636774649354,703,1572621636774415016,,kr210_joint_a1,kr210_joint_a2,kr210_joint_a3,kr210_joint_a4,kr210_joint_a5,kr210_joint_a6,1.46562354524,-1.12983999507,1.57694254017,-9.3090070776e-18,1.1236937817,0.186270719248
1572621636876069249,704,1572621636874629020,,kr210_joint_a1,kr210_joint_a2,kr210_joint_a3,kr210_joint_a4,kr210_joint_a5,kr210_joint_a6,1.46562354524,-1.12983999507,1.57694254017,-9.3090070776e-18,1.1236937817,0.186270719248
1572621636975871736,705,1572621636974618911,,kr210_joint_a1,kr210_joint_a2,kr210_joint_a3,kr210_joint_a4,kr210_joint_a5,kr210_joint_a6,1.46562354524,-1.12983999507,1.57694254017,-9.3090070776e-18,1.1236937817,0.186270719248
1572621637075276723,706,1572621637074578046,,kr210_joint_a1,kr210_joint_a2,kr210_joint_a3,kr210_joint_a4,kr210_joint_a5,kr210_joint_a6,1.46562354524,-1.12983999507,1.57694254017,-9.3090070776e-18,1.1236937817,0.186270719248
1572621637175651702,707,1572621637174566030,,kr210_joint_a1,kr210_joint_a2,kr210_joint_a3,kr210_joint_a4,kr210_joint_a5,kr210_joint_a6,1.46562354524,-1.12983999507,1.57694254017,-9.3090070776e-18,1.1236937817,0.186270719248
1572621637275085732,708,1572621637274513959,,kr210_joint_a1,kr210_joint_a2,kr210_joint_a3,kr210_joint_a4,kr210_joint_a5,kr210_joint_a6,1.46562354524,-1.12983999507,1.57694254017,-9.3090070776e-18,1.1236937817,0.186270719248
1572621637375328374,709,1572621637374614953,,kr210_joint_a1,kr210_joint_a2,kr210_joint_a3,kr210_joint_a4,kr210_joint_a5,kr210_joint_a6,1.46562354524,-1.12983999507,1.57694254017,-9.3090070776e-18,1.1236937817,0.186270719248
1572621637476159027,710,1572621637474663019,,kr210_joint_a1,kr210_joint_a2,kr210_joint_a3,kr210_joint_a4,kr210_joint_a5,kr210_joint_a6,1.46562354524,-1.12983999507,1.57694254017,-9.3090070776e-18,1.1236937817,0.186270719248
1572621637576575415,711,1572621637574927091,,kr210_joint_a1,kr210_joint_a2,kr210_joint_a3,kr210_joint_a4,kr210_joint_a5,kr210_joint_a6,1.46562354524,-1.12983999507,1.57694254017,-9.3090070776e-18,1.1236937817,0.186270719248
1572621637675720641,712,1572621637674717903,,kr210_joint_a1,kr210_joint_a2,kr210_joint_a3,kr210_joint_a4,kr210_joint_a5,kr210_joint_a6,1.46562354524,-1.12983999507,1.57694254017,-9.3090070776e-18,1.1236937817,0.186270719248
1572621637780521029,713,1572621637774441957,,kr210_joint_a1,kr210_joint_a2,kr210_joint_a3,kr210_joint_a4,kr210_joint_a5,kr210_joint_a6,1.46562354524,-1.12983999507,1.57694254017,-9.3090070776e-18,1.1236937817,0.186270719248
1572621637906743401,714,1572621637874378919,,kr210_joint_a1,kr210_joint_a2,kr210_joint_a3,kr210_joint_a4,kr210_joint_a5,kr210_joint_a6,1.46562354524,-1.12983999507,1.57694254017,-9.3090070776e-18,1.1236937817,0.186270719248
1572621637985504372,715,1572621637974376916,,kr210_joint_a1,kr210_joint_a2,kr210_joint_a3,kr210_joint_a4,kr210_joint_a5,kr210_joint_a6,1.46562354524,-1.12983999507,1.57694254017,-9.3090070776e-18,1.1236937817,0.186270719248
1572621638091693416,716,1572621638074376106,,kr210_joint_a1,kr210_joint_a2,kr210_joint_a3,kr210_joint_a4,kr210_joint_a5,kr210_joint_a6,1.46562354524,-1.12983999507,1.57694254017,-9.3090070776e-18,1.1236937817,0.186270719248
1572621638187529340,717,1572621638174411058,,kr210_joint_a1,kr210_joint_a2,kr210_joint_a3,kr210_joint_a4,kr210_joint_a5,kr210_joint_a6,1.46562354524,-1.12983999507,1.57694254017,-9.3090070776e-18,1.1236937817,0.186270719248
1572621638303034316,718,1572621638274498939,,kr210_joint_a1,kr210_joint_a2,kr210_joint_a3,kr210_joint_a4,kr210_joint_a5,kr210_joint_a6,1.46562354524,-1.12983999507,1.57694254017,-9.3090070776e-18,1.1236937817,0.186270719248
1572621638384785597,719,1572621638374783992,,kr210_joint_a1,kr210_joint_a2,kr210_joint_a3,kr210_joint_a4,kr210_joint_a5,kr210_joint_a6,1.46562354524,-1.12983999507,1.57694254017,-9.3090070776e-18,1.1236937817,0.186270719248
1572621638483262768,720,1572621638474389076,,kr210_joint_a1,kr210_joint_a2,kr210_joint_a3,kr210_joint_a4,kr210_joint_a5,kr210_joint_a6,1.46562354524,-1.12983999507,1.57694254017,-9.3090070776e-18,1.1236937817,0.186270719248
1572621638592912492,721,1572621638574373006,,kr210_joint_a1,kr210_joint_a2,kr210_joint_a3,kr210_joint_a4,kr210_joint_a5,kr210_joint_a6,1.46562354524,-1.12983999507,1.57694254017,-9.3090070776e-18,1.1236937817,0.186270719248
1572621638688612593,722,1572621638674370050,,kr210_joint_a1,kr210_joint_a2,kr210_joint_a3,kr210_joint_a4,kr210_joint_a5,kr210_joint_a6,1.46562354524,-1.12983999507,1.57694254017,-9.3090070776e-18,1.1236937817,0.186270719248
1572621638806266076,723,1572621638774372100,,kr210_joint_a1,kr210_joint_a2,kr210_joint_a3,kr210_joint_a4,kr210_joint_a5,kr210_joint_a6,1.46562354524,-1.12983999507,1.57694254017,-9.3090070776e-18,1.1236937817,0.186270719248
1572621638878053531,724,1572621638874371051,,kr210_joint_a1,kr210_joint_a2,kr210_joint_a3,kr210_joint_a4,kr210_joint_a5,kr210_joint_a6,1.46562354524,-1.12983999507,1.57694254017,-9.3090070776e-18,1.1236937817,0.186270719248
1572621638980947550,725,1572621638974430084,,kr210_joint_a1,kr210_joint_a2,kr210_joint_a3,kr210_joint_a4,kr210_joint_a5,kr210_joint_a6,1.46562354524,-1.12983999507,1.57694254017,-9.3090070776e-18,1.1236937817,0.186270719248
1572621639079361829,726,1572621639074466943,,kr210_joint_a1,kr210_joint_a2,kr210_joint_a3,kr210_joint_a4,kr210_joint_a5,kr210_joint_a6,1.46562354524,-1.12983999507,1.57694254017,-9.3090070776e-18,1.1236937817,0.186270719248
1572621639180839049,727,1572621639174628973,,kr210_joint_a1,kr210_joint_a2,kr210_joint_a3,kr210_joint_a4,kr210_joint_a5,kr210_joint_a6,1.46562354524,-1.12983999507,1.57694254017,-9.3090070776e-18,1.1236937817,0.186270719248
1572621639275107667,728,1572621639274408102,,kr210_joint_a1,kr210_joint_a2,kr210_joint_a3,kr210_joint_a4,kr210_joint_a5,kr210_joint_a6,1.46562354524,-1.12983999507,1.57694254017,-9.3090070776e-18,1.1236937817,0.186270719248
1572621639375519827,729,1572621639374380111,,kr210_joint_a1,kr210_joint_a2,kr210_joint_a3,kr210_joint_a4,kr210_joint_a5,kr210_joint_a6,1.46562354524,-1.12983999507,1.57694254017,-9.3090070776e-18,1.1236937817,0.186270719248
1572621639477806404,730,1572621639474397897,,kr210_joint_a1,kr210_joint_a2,kr210_joint_a3,kr210_joint_a4,kr210_joint_a5,kr210_joint_a6,1.46562354524,-1.12983999507,1.57694254017,-9.3090070776e-18,1.1236937817,0.186270719248
1572621639577425925,731,1572621639574373006,,kr210_joint_a1,kr210_joint_a2,kr210_joint_a3,kr210_joint_a4,kr210_joint_a5,kr210_joint_a6,1.46562354524,-1.12983999507,1.57694254017,-9.3090070776e-18,1.1236937817,0.186270719248
1572621639699464839,732,1572621639674374103,,kr210_joint_a1,kr210_joint_a2,kr210_joint_a3,kr210_joint_a4,kr210_joint_a5,kr210_joint_a6,1.46562354524,-1.12983999507,1.57694254017,-9.3090070776e-18,1.1236937817,0.186270719248
1572621639794834273,733,1572621639774521112,,kr210_joint_a1,kr210_joint_a2,kr210_joint_a3,kr210_joint_a4,kr210_joint_a5,kr210_joint_a6,1.46562354524,-1.12983999507,1.57694254017,-9.3090070776e-18,1.1236937817,0.186270719248
1572621639880853302,734,1572621639874562025,,kr210_joint_a1,kr210_joint_a2,kr210_joint_a3,kr210_joint_a4,kr210_joint_a5,kr210_joint_a6,1.46562354524,-1.12983999507,1.57694254017,-9.3090070776e-18,1.1236937817,0.186270719248
1572621640012735620,735,1572621639974374055,,kr210_joint_a1,kr210_joint_a2,kr210_joint_a3,kr210_joint_a4,kr210_joint_a5,kr210_joint_a6,1.46562354524,-1.12983999507,1.57694254017,-9.3090070776e-18,1.1236937817,0.186270719248
1572621640098049775,736,1572621640074372053,,kr210_joint_a1,kr210_joint_a2,kr210_joint_a3,kr210_joint_a4,kr210_joint_a5,kr210_joint_a6,1.46562354524,-1.12983999507,1.57694254017,-9.3090070776e-18,1.1236937817,0.186270719248
1572621640180120541,737,1572621640174365997,,kr210_joint_a1,kr210_joint_a2,kr210_joint_a3,kr210_joint_a4,kr210_joint_a5,kr210_joint_a6,1.46562354524,-1.12983999507,1.57694254017,-9.3090070776e-18,1.1236937817,0.186270719248
1572621640282793712,738,1572621640274364948,,kr210_joint_a1,kr210_joint_a2,kr210_joint_a3,kr210_joint_a4,kr210_joint_a5,kr210_joint_a6,1.46562354524,-1.12983999507,1.57694254017,-9.3090070776e-18,1.1236937817,0.186270719248
1572621640408028448,739,1572621640374819040,,kr210_joint_a1,kr210_joint_a2,kr210_joint_a3,kr210_joint_a4,kr210_joint_a5,kr210_joint_a6,1.46562354524,-1.12983999507,1.57694254017,-9.3090070776e-18,1.1236937817,0.186270719248
1572621640475833483,740,1572621640474370002,,kr210_joint_a1,kr210_joint_a2,kr210_joint_a3,kr210_joint_a4,kr210_joint_a5,kr210_joint_a6,1.46562354524,-1.12983999507,1.57694254017,-9.3090070776e-18,1.1236937817,0.186270719248
1572621640579239959,741,1572621640574388980,,kr210_joint_a1,kr210_joint_a2,kr210_joint_a3,kr210_joint_a4,kr210_joint_a5,kr210_joint_a6,1.46562354524,-1.12983999507,1.57694254017,-9.3090070776e-18,1.1236937817,0.186270719248
1572621640679142895,742,1572621640674540042,,kr210_joint_a1,kr210_joint_a2,kr210_joint_a3,kr210_joint_a4,kr210_joint_a5,kr210_joint_a6,1.46562354524,-1.12983999507,1.57694254017,-9.3090070776e-18,1.1236937817,0.186270719248
1572621640799638713,743,1572621640774422883,,kr210_joint_a1,kr210_joint_a2,kr210_joint_a3,kr210_joint_a4,kr210_joint_a5,kr210_joint_a6,1.46562354524,-1.12983999507,1.57694254017,-9.3090070776e-18,1.1236937817,0.186270719248
1572621640891626756,744,1572621640874373912,,kr210_joint_a1,kr210_joint_a2,kr210_joint_a3,kr210_joint_a4,kr210_joint_a5,kr210_joint_a6,1.46562354524,-1.12983999507,1.57694254017,-9.3090070776e-18,1.1236937817,0.186270719248
1572621640974595934,745,1572621640974392890,,kr210_joint_a1,kr210_joint_a2,kr210_joint_a3,kr210_joint_a4,kr210_joint_a5,kr210_joint_a6,1.46562354524,-1.12983999507,1.57694254017,-9.3090070776e-18,1.1236937817,0.186270719248
1572621641074806113,746,1572621641074378967,,kr210_joint_a1,kr210_joint_a2,kr210_joint_a3,kr210_joint_a4,kr210_joint_a5,kr210_joint_a6,1.46562354524,-1.12983999507,1.57694254017,-9.3090070776e-18,1.1236937817,0.186270719248
1572621641182670405,747,1572621641174371004,,kr210_joint_a1,kr210_joint_a2,kr210_joint_a3,kr210_joint_a4,kr210_joint_a5,kr210_joint_a6,1.46562354524,-1.12983999507,1.57694254017,-9.3090070776e-18,1.1236937817,0.186270719248
1572621641282576010,748,1572621641274369955,,kr210_joint_a1,kr210_joint_a2,kr210_joint_a3,kr210_joint_a4,kr210_joint_a5,kr210_joint_a6,1.46562354524,-1.12983999507,1.57694254017,-9.3090070776e-18,1.1236937817,0.186270719248
1572621641375556049,749,1572621641374389886,,kr210_joint_a1,kr210_joint_a2,kr210_joint_a3,kr210_joint_a4,kr210_joint_a5,kr210_joint_a6,1.46562354524,-1.12983999507,1.57694254017,-9.3090070776e-18,1.1236937817,0.186270719248
1572621641507214599,750,1572621641474531888,,kr210_joint_a1,kr210_joint_a2,kr210_joint_a3,kr210_joint_a4,kr210_joint_a5,kr210_joint_a6,1.46562354524,-1.12983999507,1.57694254017,-9.3090070776e-18,1.1236937817,0.186270719248
1572621641595457617,751,1572621641574306011,,kr210_joint_a1,kr210_joint_a2,kr210_joint_a3,kr210_joint_a4,kr210_joint_a5,kr210_joint_a6,1.46562354524,-1.12983999507,1.57694254017,-9.3090070776e-18,1.1236937817,0.186270719248
1572621641696082622,752,1572621641674381017,,kr210_joint_a1,kr210_joint_a2,kr210_joint_a3,kr210_joint_a4,kr210_joint_a5,kr210_joint_a6,1.46562354524,-1.12983999507,1.57694254017,-9.3090070776e-18,1.1236937817,0.186270719248
1572621641787695256,753,1572621641774369001,,kr210_joint_a1,kr210_joint_a2,kr210_joint_a3,kr210_joint_a4,kr210_joint_a5,kr210_joint_a6,1.46562354524,-1.12983999507,1.57694254017,-9.3090070776e-18,1.1236937817,0.186270719248
1572621641884062480,754,1572621641874375104,,kr210_joint_a1,kr210_joint_a2,kr210_joint_a3,kr210_joint_a4,kr210_joint_a5,kr210_joint_a6,1.46562354524,-1.12983999507,1.57694254017,-9.3090070776e-18,1.1236937817,0.186270719248
1572621641982487995,755,1572621641974373102,,kr210_joint_a1,kr210_joint_a2,kr210_joint_a3,kr210_joint_a4,kr210_joint_a5,kr210_joint_a6,1.46562354524,-1.12983999507,1.57694254017,-9.3090070776e-18,1.1236937817,0.186270719248
1572621642090097956,756,1572621642074368953,,kr210_joint_a1,kr210_joint_a2,kr210_joint_a3,kr210_joint_a4,kr210_joint_a5,kr210_joint_a6,1.46562354524,-1.12983999507,1.57694254017,-9.3090070776e-18,1.1236937817,0.186270719248
1572621642184479889,757,1572621642174407005,,kr210_joint_a1,kr210_joint_a2,kr210_joint_a3,kr210_joint_a4,kr210_joint_a5,kr210_joint_a6,1.46562354524,-1.12983999507,1.57694254017,-9.3090070776e-18,1.1236937817,0.186270719248
1572621642281626706,758,1572621642274393081,,kr210_joint_a1,kr210_joint_a2,kr210_joint_a3,kr210_joint_a4,kr210_joint_a5,kr210_joint_a6,1.46562354524,-1.12983999507,1.57694254017,-9.3090070776e-18,1.1236937817,0.186270719248
1572621642381331833,759,1572621642374381065,,kr210_joint_a1,kr210_joint_a2,kr210_joint_a3,kr210_joint_a4,kr210_joint_a5,kr210_joint_a6,1.46562354524,-1.12983999507,1.57694254017,-9.3090070776e-18,1.1236937817,0.186270719248
1572621642474716393,760,1572621642474360942,,kr210_joint_a1,kr210_joint_a2,kr210_joint_a3,kr210_joint_a4,kr210_joint_a5,kr210_joint_a6,1.46562354524,-1.12983999507,1.57694254017,-9.3090070776e-18,1.1236937817,0.186270719248
1572621642599408324,761,1572621642574372053,,kr210_joint_a1,kr210_joint_a2,kr210_joint_a3,kr210_joint_a4,kr210_joint_a5,kr210_joint_a6,1.46562354524,-1.12983999507,1.57694254017,-9.3090070776e-18,1.1236937817,0.186270719248
1572621642683086071,762,1572621642674370050,,kr210_joint_a1,kr210_joint_a2,kr210_joint_a3,kr210_joint_a4,kr210_joint_a5,kr210_joint_a6,1.46562354524,-1.12983999507,1.57694254017,-9.3090070776e-18,1.1236937817,0.186270719248
1572621642785762298,763,1572621642774372100,,kr210_joint_a1,kr210_joint_a2,kr210_joint_a3,kr210_joint_a4,kr210_joint_a5,kr210_joint_a6,1.46562354524,-1.12983999507,1.57694254017,-9.3090070776e-18,1.1236937817,0.186270719248
1572621642877957862,764,1572621642874392032,,kr210_joint_a1,kr210_joint_a2,kr210_joint_a3,kr210_joint_a4,kr210_joint_a5,kr210_joint_a6,1.46562354524,-1.12983999507,1.57694254017,-9.3090070776e-18,1.1236937817,0.186270719248
1572621642980226369,765,1572621642974438905,,kr210_joint_a1,kr210_joint_a2,kr210_joint_a3,kr210_joint_a4,kr210_joint_a5,kr210_joint_a6,1.46562354524,-1.12983999507,1.57694254017,-9.3090070776e-18,1.1236937817,0.186270719248
1572621643074582074,766,1572621643074390888,,kr210_joint_a1,kr210_joint_a2,kr210_joint_a3,kr210_joint_a4,kr210_joint_a5,kr210_joint_a6,1.46562354524,-1.12983999507,1.57694254017,-9.3090070776e-18,1.1236937817,0.186270719248
1572621643193840316,767,1572621643174380064,,kr210_joint_a1,kr210_joint_a2,kr210_joint_a3,kr210_joint_a4,kr210_joint_a5,kr210_joint_a6,1.46562354524,-1.12983999507,1.57694254017,-9.3090070776e-18,1.1236937817,0.186270719248
1572621643276911295,768,1572621643274370908,,kr210_joint_a1,kr210_joint_a2,kr210_joint_a3,kr210_joint_a4,kr210_joint_a5,kr210_joint_a6,1.46562354524,-1.12983999507,1.57694254017,-9.3090070776e-18,1.1236937817,0.186270719248
1572621643381293658,769,1572621643374372005,,kr210_joint_a1,kr210_joint_a2,kr210_joint_a3,kr210_joint_a4,kr210_joint_a5,kr210_joint_a6,1.46562354524,-1.12983999507,1.57694254017,-9.3090070776e-18,1.1236937817,0.186270719248
1572621643489569008,770,1572621643474370002,,kr210_joint_a1,kr210_joint_a2,kr210_joint_a3,kr210_joint_a4,kr210_joint_a5,kr210_joint_a6,1.46562354524,-1.12983999507,1.57694254017,-9.3090070776e-18,1.1236937817,0.186270719248
1572621643574593300,771,1572621643574363946,,kr210_joint_a1,kr210_joint_a2,kr210_joint_a3,kr210_joint_a4,kr210_joint_a5,kr210_joint_a6,1.46562354524,-1.12983999507,1.57694254017,-9.3090070776e-18,1.1236937817,0.186270719248
1572621643695878809,772,1572621643674401044,,kr210_joint_a1,kr210_joint_a2,kr210_joint_a3,kr210_joint_a4,kr210_joint_a5,kr210_joint_a6,1.46562354524,-1.12983999507,1.57694254017,-9.3090070776e-18,1.1236937817,0.186270719248
1572621643794795762,773,1572621643774379968,,kr210_joint_a1,kr210_joint_a2,kr210_joint_a3,kr210_joint_a4,kr210_joint_a5,kr210_joint_a6,1.46562354524,-1.12983999507,1.57694254017,-9.3090070776e-18,1.1236937817,0.186270719248
1572621643891059502,774,1572621643874514102,,kr210_joint_a1,kr210_joint_a2,kr210_joint_a3,kr210_joint_a4,kr210_joint_a5,kr210_joint_a6,1.46562354524,-1.12983999507,1.57694254017,-9.3090070776e-18,1.1236937817,0.186270719248
1572621643977498954,775,1572621643974476099,,kr210_joint_a1,kr210_joint_a2,kr210_joint_a3,kr210_joint_a4,kr210_joint_a5,kr210_joint_a6,1.46562354524,-1.12983999507,1.57694254017,-9.3090070776e-18,1.1236937817,0.186270719248
1572621644077195184,776,1572621644074368953,,kr210_joint_a1,kr210_joint_a2,kr210_joint_a3,kr210_joint_a4,kr210_joint_a5,kr210_joint_a6,1.46562354524,-1.12983999507,1.57694254017,-9.3090070776e-18,1.1236937817,0.186270719248
1572621644201813183,777,1572621644174372911,,kr210_joint_a1,kr210_joint_a2,kr210_joint_a3,kr210_joint_a4,kr210_joint_a5,kr210_joint_a6,1.46562354524,-1.12983999507,1.57694254017,-9.3090070776e-18,1.1236937817,0.186270719248
1572621644320437347,778,1572621644274365901,,kr210_joint_a1,kr210_joint_a2,kr210_joint_a3,kr210_joint_a4,kr210_joint_a5,kr210_joint_a6,1.46562354524,-1.12983999507,1.57694254017,-9.3090070776e-18,1.1236937817,0.186270719248
1572621644391612508,779,1572621644374376058,,kr210_joint_a1,kr210_joint_a2,kr210_joint_a3,kr210_joint_a4,kr210_joint_a5,kr210_joint_a6,1.46562354524,-1.12983999507,1.57694254017,-9.3090070776e-18,1.1236937817,0.186270719248
1572621644497079669,780,1572621644474375009,,kr210_joint_a1,kr210_joint_a2,kr210_joint_a3,kr210_joint_a4,kr210_joint_a5,kr210_joint_a6,1.46562354524,-1.12983999507,1.57694254017,-9.3090070776e-18,1.1236937817,0.186270719248
1572621644575168508,781,1572621644574484109,,kr210_joint_a1,kr210_joint_a2,kr210_joint_a3,kr210_joint_a4,kr210_joint_a5,kr210_joint_a6,1.46562354524,-1.12983999507,1.57694254017,-9.3090070776e-18,1.1236937817,0.186270719248
1572621644682688433,782,1572621644674393892,,kr210_joint_a1,kr210_joint_a2,kr210_joint_a3,kr210_joint_a4,kr210_joint_a5,kr210_joint_a6,1.46562354524,-1.12983999507,1.57694254017,-9.3090070776e-18,1.1236937817,0.186270719248
1572621644801989853,783,1572621644774394035,,kr210_joint_a1,kr210_joint_a2,kr210_joint_a3,kr210_joint_a4,kr210_joint_a5,kr210_joint_a6,1.46562354524,-1.12983999507,1.57694254017,-9.3090070776e-18,1.1236937817,0.186270719248
1572621644874686571,784,1572621644874372005,,kr210_joint_a1,kr210_joint_a2,kr210_joint_a3,kr210_joint_a4,kr210_joint_a5,kr210_joint_a6,1.46562354524,-1.12983999507,1.57694254017,-9.3090070776e-18,1.1236937817,0.186270719248
1572621644982282035,785,1572621644974380970,,kr210_joint_a1,kr210_joint_a2,kr210_joint_a3,kr210_joint_a4,kr210_joint_a5,kr210_joint_a6,1.46562354524,-1.12983999507,1.57694254017,-9.3090070776e-18,1.1236937817,0.186270719248
1572621645093175468,786,1572621645074369907,,kr210_joint_a1,kr210_joint_a2,kr210_joint_a3,kr210_joint_a4,kr210_joint_a5,kr210_joint_a6,1.46562354524,-1.12983999507,1.57694254017,-9.3090070776e-18,1.1236937817,0.186270719248
1572621645182972399,787,1572621645174375057,,kr210_joint_a1,kr210_joint_a2,kr210_joint_a3,kr210_joint_a4,kr210_joint_a5,kr210_joint_a6,1.46562354524,-1.12983999507,1.57694254017,-9.3090070776e-18,1.1236937817,0.186270719248
1572621645274785209,788,1572621645274363994,,kr210_joint_a1,kr210_joint_a2,kr210_joint_a3,kr210_joint_a4,kr210_joint_a5,kr210_joint_a6,1.46562354524,-1.12983999507,1.57694254017,-9.3090070776e-18,1.1236937817,0.186270719248
1572621645382567224,789,1572621645374414920,,kr210_joint_a1,kr210_joint_a2,kr210_joint_a3,kr210_joint_a4,kr210_joint_a5,kr210_joint_a6,1.46562354524,-1.12983999507,1.57694254017,-9.3090070776e-18,1.1236937817,0.186270719248
1572621645478167449,790,1572621645474396944,,kr210_joint_a1,kr210_joint_a2,kr210_joint_a3,kr210_joint_a4,kr210_joint_a5,kr210_joint_a6,1.46562354524,-1.12983999507,1.57694254017,-9.3090070776e-18,1.1236937817,0.186270719248
1572621645589229866,791,1572621645574470996,,kr210_joint_a1,kr210_joint_a2,kr210_joint_a3,kr210_joint_a4,kr210_joint_a5,kr210_joint_a6,1.46562354524,-1.12983999507,1.57694254017,-9.3090070776e-18,1.1236937817,0.186270719248
1572621645674605754,792,1572621645674372911,,kr210_joint_a1,kr210_joint_a2,kr210_joint_a3,kr210_joint_a4,kr210_joint_a5,kr210_joint_a6,1.46562354524,-1.12983999507,1.57694254017,-9.3090070776e-18,1.1236937817,0.186270719248
1572621645821930096,793,1572621645774373054,,kr210_joint_a1,kr210_joint_a2,kr210_joint_a3,kr210_joint_a4,kr210_joint_a5,kr210_joint_a6,1.46562354524,-1.12983999507,1.57694254017,-9.3090070776e-18,1.1236937817,0.186270719248
1572621645884446653,794,1572621645874380111,,kr210_joint_a1,kr210_joint_a2,kr210_joint_a3,kr210_joint_a4,kr210_joint_a5,kr210_joint_a6,1.46562354524,-1.12983999507,1.57694254017,-9.3090070776e-18,1.1236937817,0.186270719248
1572621645976603635,795,1572621645974364995,,kr210_joint_a1,kr210_joint_a2,kr210_joint_a3,kr210_joint_a4,kr210_joint_a5,kr210_joint_a6,1.46562354524,-1.12983999507,1.57694254017,-9.3090070776e-18,1.1236937817,0.186270719248
1572621646090304760,796,1572621646074368953,,kr210_joint_a1,kr210_joint_a2,kr210_joint_a3,kr210_joint_a4,kr210_joint_a5,kr210_joint_a6,1.46562354524,-1.12983999507,1.57694254017,-9.3090070776e-18,1.1236937817,0.186270719248
1572621646181449106,797,1572621646174418926,,kr210_joint_a1,kr210_joint_a2,kr210_joint_a3,kr210_joint_a4,kr210_joint_a5,kr210_joint_a6,1.46562354524,-1.12983999507,1.57694254017,-9.3090070776e-18,1.1236937817,0.186270719248
1572621646274952280,798,1572621646274422883,,kr210_joint_a1,kr210_joint_a2,kr210_joint_a3,kr210_joint_a4,kr210_joint_a5,kr210_joint_a6,1.46609025313,-1.12943795263,1.574539654,-3.14348787211e-07,1.12569109321,0.185437225055
1572621646380979126,799,1572621646374730110,,kr210_joint_a1,kr210_joint_a2,kr210_joint_a3,kr210_joint_a4,kr210_joint_a5,kr210_joint_a6,1.46751960917,-1.12820664328,1.56718049016,-1.27708446076e-06,1.13180812981,0.182884536366
1572621646481960634,800,1572621646474378108,,kr210_joint_a1,kr210_joint_a2,kr210_joint_a3,kr210_joint_a4,kr210_joint_a5,kr210_joint_a6,1.46938175946,-1.12660250616,1.55759304745,-2.53132656194e-06,1.13977734198,0.179558919882
1572621646575459729,801,1572621646574366092,,kr210_joint_a1,kr210_joint_a2,kr210_joint_a3,kr210_joint_a4,kr210_joint_a5,kr210_joint_a6,1.47180974147,-1.12451093703,1.54509237093,-4.16668181181e-06,1.15016807351,0.175222783845
1572621646681092686,802,1572621646674355983,,kr210_joint_a1,kr210_joint_a2,kr210_joint_a3,kr210_joint_a4,kr210_joint_a5,kr210_joint_a6,1.47431998917,-1.12234850066,1.53216814233,-5.85744671361e-06,1.16091086728,0.170739729399
1572621646777850073,803,1572621646774373054,,kr210_joint_a1,kr210_joint_a2,kr210_joint_a3,kr210_joint_a4,kr210_joint_a5,kr210_joint_a6,1.47639685293,-1.12055940004,1.52147522866,-7.25630800634e-06,1.16979896187,0.167030655873
1572621646879829500,804,1572621646874368906,,kr210_joint_a1,kr210_joint_a2,kr210_joint_a3,kr210_joint_a4,kr210_joint_a5,kr210_joint_a6,1.47834936032,-1.11887742539,1.51142257458,-8.57140968218e-06,1.17815486402,0.16354367054
1572621646975070256,805,1572621646974447011,,kr210_joint_a1,kr210_joint_a2,kr210_joint_a3,kr210_joint_a4,kr210_joint_a5,kr210_joint_a6,1.48024771496,-1.11724210028,1.50164873062,-9.85003704407e-06,1.18627901543,0.160153396664
1572621647094442945,806,1572621647074497938,,kr210_joint_a1,kr210_joint_a2,kr210_joint_a3,kr210_joint_a4,kr210_joint_a5,kr210_joint_a6,1.4821460696,-1.11560677516,1.49187488666,-1.11286644062e-05,1.19440316683,0.156763122786
1572621647175366634,807,1572621647174474954,,kr210_joint_a1,kr210_joint_a2,kr210_joint_a3,kr210_joint_a4,kr210_joint_a5,kr210_joint_a6,1.48385458878,-1.11413498255,1.48307842709,-1.22794290321e-05,1.2017149031,0.153711876297
1572621647274746389,808,1572621647274424076,,kr210_joint_a1,kr210_joint_a2,kr210_joint_a3,kr210_joint_a4,kr210_joint_a5,kr210_joint_a6,1.48575294342,-1.11249965743,1.47330458313,-1.35580563942e-05,1.2098390545,0.150321602419
1572621647384627407,809,1572621647374409914,,kr210_joint_a1,kr210_joint_a2,kr210_joint_a3,kr210_joint_a4,kr210_joint_a5,kr210_joint_a6,1.48765129806,-1.11086433232,1.46353073917,-1.48366837561e-05,1.21796320591,0.146931328542
1572621647513270271,810,1572621647474365949,,kr210_joint_a1,kr210_joint_a2,kr210_joint_a3,kr210_joint_a4,kr210_joint_a5,kr210_joint_a6,1.48936665622,-1.10938664832,1.45469906855,-1.59920547388e-05,1.22530421008,0.143867868321
1572621647591704950,811,1572621647574517965,,kr210_joint_a1,kr210_joint_a2,kr210_joint_a3,kr210_joint_a4,kr210_joint_a5,kr210_joint_a6,1.49126501084,-1.10775132322,1.4449252247,-1.72706820864e-05,1.23342836139,0.140477594483
1572621647694034803,812,1572621647674398899,,kr210_joint_a1,kr210_joint_a2,kr210_joint_a3,kr210_joint_a4,kr210_joint_a5,kr210_joint_a6,1.49316336548,-1.10611599811,1.43515138076,-1.85493094459e-05,1.24155251278,0.137087320612
1572621647790278404,813,1572621647774425983,,kr210_joint_a1,kr210_joint_a2,kr210_joint_a3,kr210_joint_a4,kr210_joint_a5,kr210_joint_a6,1.49506172011,-1.10448067299,1.42537753682,-1.98279368049e-05,1.24967666417,0.133697046743
1572621647875808742,814,1572621647874598026,,kr210_joint_a1,kr210_joint_a2,kr210_joint_a3,kr210_joint_a4,kr210_joint_a5,kr210_joint_a6,1.49677023929,-1.10300888039,1.41658107728,-2.09787014282e-05,1.25698840042,0.13064580026
1572621647977851199,815,1572621647974572896,,kr210_joint_a1,kr210_joint_a2,kr210_joint_a3,kr210_joint_a4,kr210_joint_a5,kr210_joint_a6,1.49866859393,-1.10137355527,1.40680723333,-2.2257328788e-05,1.26511255181,0.127255526389
1572621648092061981,816,1572621648074362993,,kr210_joint_a1,kr210_joint_a2,kr210_joint_a3,kr210_joint_a4,kr210_joint_a5,kr210_joint_a6,1.50057378758,-1.09973233873,1.39699817813,-2.35405625318e-05,1.27326597128,0.123853038714
1572621648175710293,817,1572621648174340963,,kr210_joint_a1,kr210_joint_a2,kr210_joint_a3,kr210_joint_a4,kr210_joint_a5,kr210_joint_a6,1.50247214222,-1.09809701362,1.38722433417,-2.48191898935e-05,1.28139012268,0.120462764838
1572621648296855660,818,1572621648274399042,,kr210_joint_a1,kr210_joint_a2,kr210_joint_a3,kr210_joint_a4,kr210_joint_a5,kr210_joint_a6,1.5041806614,-1.09662522101,1.37842787461,-2.59699545193e-05,1.28870185894,0.117411518349
1572621648375811843,819,1572621648374373912,,kr210_joint_a1,kr210_joint_a2,kr210_joint_a3,kr210_joint_a4,kr210_joint_a5,kr210_joint_a6,1.50607901604,-1.09498989589,1.36865403065,-2.72485818815e-05,1.29682601035,0.114021244471
1572621648492361211,820,1572621648474349975,,kr210_joint_a1,kr210_joint_a2,kr210_joint_a3,kr210_joint_a4,kr210_joint_a5,kr210_joint_a6,1.50797737068,-1.09335457077,1.35888018668,-2.85272092436e-05,1.30495016176,0.110630970594
1572621648576863134,821,1572621648574436902,,kr210_joint_a1,kr210_joint_a2,kr210_joint_a3,kr210_joint_a4,kr210_joint_a5,kr210_joint_a6,1.50968588986,-1.09188277817,1.35008372712,-2.96779738694e-05,1.31226189802,0.107579724104
1572621648682205395,822,1572621648674416065,,kr210_joint_a1,kr210_joint_a2,kr210_joint_a3,kr210_joint_a4,kr210_joint_a5,kr210_joint_a6,1.5115842445,-1.09024745305,1.34030988316,-3.09566012312e-05,1.32038604943,0.104189450228
1572621648774645597,823,1572621648774382114,,kr210_joint_a1,kr210_joint_a2,kr210_joint_a3,kr210_joint_a4,kr210_joint_a5,kr210_joint_a6,1.51348943812,-1.08860623654,1.33050082815,-3.22398349502e-05,1.32853946874,0.100786962619
1572621648889826014,824,1572621648874353885,,kr210_joint_a1,kr210_joint_a2,kr210_joint_a3,kr210_joint_a4,kr210_joint_a5,kr210_joint_a6,1.51538779276,-1.08697091143,1.32072698419,-3.35184623121e-05,1.33666362014,0.0973966887421
1572621648982587930,825,1572621648974373102,,kr210_joint_a1,kr210_joint_a2,kr210_joint_a3,kr210_joint_a4,kr210_joint_a5,kr210_joint_a6,1.51709631194,-1.08549911882,1.31193052462,-3.4669226938e-05,1.34397535641,0.0943454422524
1572621649098225706,826,1572621649074368953,,kr210_joint_a1,kr210_joint_a2,kr210_joint_a3,kr210_joint_a4,kr210_joint_a5,kr210_joint_a6,1.51899466658,-1.0838637937,1.30215668066,-3.59478543002e-05,1.35209950781,0.0909551683749
1572621649197202906,827,1572621649174355983,,kr210_joint_a1,kr210_joint_a2,kr210_joint_a3,kr210_joint_a4,kr210_joint_a5,kr210_joint_a6,1.52089302122,-1.08222846858,1.2923828367,-3.72264816623e-05,1.36022365922,0.0875648944976
1572621649289346853,828,1572621649274370908,,kr210_joint_a1,kr210_joint_a2,kr210_joint_a3,kr210_joint_a4,kr210_joint_a5,kr210_joint_a6,1.5226015404,-1.08075667598,1.28358637713,-3.83772462879e-05,1.36753539548,0.0845136480087
1572621649379887140,829,1572621649374315023,,kr210_joint_a1,kr210_joint_a2,kr210_joint_a3,kr210_joint_a4,kr210_joint_a5,kr210_joint_a6,1.52450673402,-1.07911545947,1.27377732212,-3.96604800069e-05,1.37568881479,0.0811111603998
1572621649475370781,830,1572621649474550962,,kr210_joint_a1,kr210_joint_a2,kr210_joint_a3,kr210_joint_a4,kr210_joint_a5,kr210_joint_a6,1.52640508866,-1.07748013435,1.26400347816,-4.09391073687e-05,1.3838129662,0.0777208865232
1572621649604697170,831,1572621649574441909,,kr210_joint_a1,kr210_joint_a2,kr210_joint_a3,kr210_joint_a4,kr210_joint_a5,kr210_joint_a6,1.5283034433,-1.07584480924,1.2542296342,-4.22177347308e-05,1.3919371176,0.0743306126459
1572621649675336251,832,1572621649674372911,,kr210_joint_a1,kr210_joint_a2,kr210_joint_a3,kr210_joint_a4,kr210_joint_a5,kr210_joint_a6,1.53001196248,-1.07437301663,1.24543317463,-4.33684993568e-05,1.39924885387,0.0712793661561
1572621649774603605,833,1572621649774408102,,kr210_joint_a1,kr210_joint_a2,kr210_joint_a3,kr210_joint_a4,kr210_joint_a5,kr210_joint_a6,1.53191031712,-1.07273769151,1.23565933067,-4.46471267189e-05,1.40737300528,0.0678890922787
1572621649879469355,834,1572621649874372959,,kr210_joint_a1,kr210_joint_a2,kr210_joint_a3,kr210_joint_a4,kr210_joint_a5,kr210_joint_a6,1.53380867176,-1.07110236639,1.22588548671,-4.59257540808e-05,1.41549715668,0.0644988184019
1572621649984118482,835,1572621649974343061,,kr210_joint_a1,kr210_joint_a2,kr210_joint_a3,kr210_joint_a4,kr210_joint_a5,kr210_joint_a6,1.53571386538,-1.06946114989,1.2160764317,-4.72089877997e-05,1.42365057599,0.0610963307932
1572621650076509754,836,1572621650074402093,,kr210_joint_a1,kr210_joint_a2,kr210_joint_a3,kr210_joint_a4,kr210_joint_a5,kr210_joint_a6,1.53742238454,-1.0679893573,1.20727997225,-4.83597524113e-05,1.43096231216,0.0580450843415
1572621650174883012,837,1572621650174443006,,kr210_joint_a1,kr210_joint_a2,kr210_joint_a3,kr210_joint_a4,kr210_joint_a5,kr210_joint_a6,1.53932073917,-1.06635403218,1.1975061283,-4.96383797708e-05,1.43908646355,0.054654810471
1572621650276269126,838,1572621650274460077,,kr210_joint_a1,kr210_joint_a2,kr210_joint_a3,kr210_joint_a4,kr210_joint_a5,kr210_joint_a6,1.54121909381,-1.06471870707,1.18773228436,-5.09170071299e-05,1.44721061494,0.0512645366016
1572621650385668542,839,1572621650374388933,,kr210_joint_a1,kr210_joint_a2,kr210_joint_a3,kr210_joint_a4,kr210_joint_a5,kr210_joint_a6,1.54311744845,-1.06308338195,1.17795844043,-5.21956344891e-05,1.45533476633,0.0478742627321
1572621650479596447,840,1572621650474375963,,kr210_joint_a1,kr210_joint_a2,kr210_joint_a3,kr210_joint_a4,kr210_joint_a5,kr210_joint_a6,1.54482596763,-1.06161158935,1.16916198088,-5.33463991128e-05,1.46264650258,0.0448230162481
1572621650576232479,841,1572621650574376106,,kr210_joint_a1,kr210_joint_a2,kr210_joint_a3,kr210_joint_a4,kr210_joint_a5,kr210_joint_a6,1.54673116128,-1.05997037281,1.15935292567,-5.46296328565e-05,1.47079992205,0.0414205285737
1572621650674663859,842,1572621650674417018,,kr210_joint_a1,kr210_joint_a2,kr210_joint_a3,kr210_joint_a4,kr210_joint_a5,kr210_joint_a6,1.54862951592,-1.0583350477,1.14957908172,-5.59082602182e-05,1.47892407345,0.0380302546975
1572621650774535741,843,1572621650774368047,,kr210_joint_a1,kr210_joint_a2,kr210_joint_a3,kr210_joint_a4,kr210_joint_a5,kr210_joint_a6,1.55052787056,-1.05669972258,1.13980523776,-5.71868875802e-05,1.48704822486,0.0346399808204
1572621650904436400,844,1572621650874372959,,kr210_joint_a1,kr210_joint_a2,kr210_joint_a3,kr210_joint_a4,kr210_joint_a5,kr210_joint_a6,1.55223638974,-1.05522792997,1.13100877819,-5.83376522061e-05,1.49435996112,0.0315887343307
1572621650976476638,845,1572621650974390983,,kr210_joint_a1,kr210_joint_a2,kr210_joint_a3,kr210_joint_a4,kr210_joint_a5,kr210_joint_a6,1.55413474438,-1.05359260485,1.12123493423,-5.96162795683e-05,1.50248411253,0.0281984604532
1572621651077996787,846,1572621651074453115,,kr210_joint_a1,kr210_joint_a2,kr210_joint_a3,kr210_joint_a4,kr210_joint_a5,kr210_joint_a6,1.55603309902,-1.05195727973,1.11146109027,-6.08949069303e-05,1.51060826393,0.0248081865761
1572621651179924749,847,1572621651174381017,,kr210_joint_a1,kr210_joint_a2,kr210_joint_a3,kr210_joint_a4,kr210_joint_a5,kr210_joint_a6,1.5577416182,-1.05048548713,1.1026646307,-6.20456715559e-05,1.5179200002,0.0217569400873
1572621651310884366,848,1572621651274384021,,kr210_joint_a1,kr210_joint_a2,kr210_joint_a3,kr210_joint_a4,kr210_joint_a5,kr210_joint_a6,1.5597817343,-1.04872804253,1.09216091554,-6.34197816463e-05,1.52665083043,0.0181134942466
1572621651412529515,849,1572621651374352931,,kr210_joint_a1,kr210_joint_a2,kr210_joint_a3,kr210_joint_a4,kr210_joint_a5,kr210_joint_a6,1.5621936677,-1.04665029837,1.07974286669,-6.50443274354e-05,1.53697288073,0.0138060194386
1572621651518604558,850,1572621651474370002,,kr210_joint_a1,kr210_joint_a2,kr210_joint_a3,kr210_joint_a4,kr210_joint_a5,kr210_joint_a6,1.56446057202,-1.04469748857,1.06807151269,-6.65711896029e-05,1.54667426817,0.00975755225081
1572621651591268936,851,1572621651574373006,,kr210_joint_a1,kr210_joint_a2,kr210_joint_a3,kr210_joint_a4,kr210_joint_a5,kr210_joint_a6,1.56680543004,-1.04267752604,1.05599880722,-6.81505571069e-05,1.55670926438,0.00556986743321
1572621651683771956,852,1572621651674370050,,kr210_joint_a1,kr210_joint_a2,kr210_joint_a3,kr210_joint_a4,kr210_joint_a5,kr210_joint_a6,1.56867165832,-1.04106987597,1.04639036865,-6.94075459148e-05,1.56469592859,0.00223696807108
1572621651785250222,853,1572621651774451017,,kr210_joint_a1,kr210_joint_a2,kr210_joint_a3,kr210_joint_a4,kr210_joint_a5,kr210_joint_a6,1.56975351414,-1.04013791839,1.04082033986,-7.01362245429e-05,1.56932581191,0.000304880434799
1572621651885054818,854,1572621651874495029,,kr210_joint_a1,kr210_joint_a2,kr210_joint_a3,kr210_joint_a4,kr210_joint_a5,kr210_joint_a6,1.56990476586,-1.0400076236,1.04004160725,-7.02380993869e-05,1.569973105,3.4759809589e-05
1572621651974752642,855,1572621651974394083,,kr210_joint_a1,kr210_joint_a2,kr210_joint_a3,kr210_joint_a4,kr210_joint_a5,kr210_joint_a6,1.56990476586,-1.0400076236,1.04004160725,-7.02380993869e-05,1.569973105,3.4759809589e-05
1572621652074644072,856,1572621652074474096,,kr210_joint_a1,kr210_joint_a2,kr210_joint_a3,kr210_joint_a4,kr210_joint_a5,kr210_joint_a6,1.56990476586,-1.0400076236,1.04004160725,-7.02380993869e-05,1.569973105,3.4759809589e-05
1572621652178577311,857,1572621652174376964,,kr210_joint_a1,kr210_joint_a2,kr210_joint_a3,kr210_joint_a4,kr210_joint_a5,kr210_joint_a6,1.56990476586,-1.0400076236,1.04004160725,-7.02380993869e-05,1.569973105,3.4759809589e-05
1572621652325276504,858,1572621652274372100,,kr210_joint_a1,kr210_joint_a2,kr210_joint_a3,kr210_joint_a4,kr210_joint_a5,kr210_joint_a6,1.56990476586,-1.0400076236,1.04004160725,-7.02380993869e-05,1.569973105,3.4759809589e-05
1572621652396848404,859,1572621652374376058,,kr210_joint_a1,kr210_joint_a2,kr210_joint_a3,kr210_joint_a4,kr210_joint_a5,kr210_joint_a6,1.56743245257,-1.0362473204,1.03822499466,-6.87221330105e-05,1.56803848992,0.000733869693043
1572621652486857394,860,1572621652474354028,,kr210_joint_a1,kr210_joint_a2,kr210_joint_a3,kr210_joint_a4,kr210_joint_a5,kr210_joint_a6,1.5605242404,-1.02574016809,1.03314896111,-6.44861741587e-05,1.56263273026,0.00268734355986
1572621652591207834,861,1572621652574434995,,kr210_joint_a1,kr210_joint_a2,kr210_joint_a3,kr210_joint_a4,kr210_joint_a5,kr210_joint_a6,1.55273435121,-1.01389201545,1.02742508669,-5.97095909709e-05,1.55653704765,0.00489013418094
1572621652675795134,862,1572621652674494028,,kr210_joint_a1,kr210_joint_a2,kr210_joint_a3,kr210_joint_a4,kr210_joint_a5,kr210_joint_a6,1.54474376001,-1.00173860199,1.02155373995,-5.4809941874e-05,1.55028431329,0.0071496784311
1572621652792416967,863,1572621652774385929,,kr210_joint_a1,kr210_joint_a2,kr210_joint_a3,kr210_joint_a4,kr210_joint_a5,kr210_joint_a6,1.53814555419,-0.991702958629,1.01670549365,-5.07640718731e-05,1.54512113734,0.00901549006709
1572621652876139420,864,1572621652874350070,,kr210_joint_a1,kr210_joint_a2,kr210_joint_a3,kr210_joint_a4,kr210_joint_a5,kr210_joint_a6,1.53154734835,-0.981667315257,1.01185724734,-4.67182018673e-05,1.53995796139,0.0108813017054
1572621652978272698,865,1572621652974378108,,kr210_joint_a1,kr210_joint_a2,kr210_joint_a3,kr210_joint_a4,kr210_joint_a5,kr210_joint_a6,1.52560896311,-0.972635236224,1.00749382566,-4.30769188623e-05,1.53531110304,0.0125605321797
1572621653082027655,866,1572621653074378967,,kr210_joint_a1,kr210_joint_a2,kr210_joint_a3,kr210_joint_a4,kr210_joint_a5,kr210_joint_a6,1.51892293358,-0.962466016045,1.00258104803,-3.89771973614e-05,1.53007920398,0.014451178216
1572621653227403043,867,1572621653174346923,,kr210_joint_a1,kr210_joint_a2,kr210_joint_a3,kr210_joint_a4,kr210_joint_a5,kr210_joint_a6,1.51232472796,-0.952430373005,0.997732801876,-3.49313274892e-05,1.5249160282,0.0163169897926
1572621653290510409,868,1572621653274377107,,kr210_joint_a1,kr210_joint_a2,kr210_joint_a3,kr210_joint_a4,kr210_joint_a5,kr210_joint_a6,1.5063863428,-0.943398294105,0.99336938026,-3.12900445379e-05,1.52026916991,0.0179962202422
1572621653396637688,869,1572621653374380111,,kr210_joint_a1,kr210_joint_a2,kr210_joint_a3,kr210_joint_a4,kr210_joint_a5,kr210_joint_a6,1.499788137,-0.933362650769,0.988521133966,-2.72441745466e-05,1.51510599398,0.0198620318738
1572621653475009706,870,1572621653474530935,,kr210_joint_a1,kr210_joint_a2,kr210_joint_a3,kr210_joint_a4,kr210_joint_a5,kr210_joint_a6,1.49310210715,-0.923193430102,0.983608356103,-2.31444528486e-05,1.50987409467,0.021752678001
1572621653606784134,871,1572621653574373960,,kr210_joint_a1,kr210_joint_a2,kr210_joint_a3,kr210_joint_a4,kr210_joint_a5,kr210_joint_a6,1.4871637219,-0.914161351076,0.979244934426,-1.95031698468e-05,1.50522723632,0.0234319084739
1572621653706288926,872,1572621653674376964,,kr210_joint_a1,kr210_joint_a2,kr210_joint_a3,kr210_joint_a4,kr210_joint_a5,kr210_joint_a6,1.48056551607,-0.904125707704,0.974396688114,-1.54572998408e-05,1.50006406037,0.0252977201122
1572621653785354259,873,1572621653774369001,,kr210_joint_a1,kr210_joint_a2,kr210_joint_a3,kr210_joint_a4,kr210_joint_a5,kr210_joint_a6,1.47396731024,-0.894090064335,0.969548441803,-1.14114298358e-05,1.49490088442,0.0271635317501
1572621653879995512,874,1572621653874375104,,kr210_joint_a1,kr210_joint_a2,kr210_joint_a3,kr210_joint_a4,kr210_joint_a5,kr210_joint_a6,1.4679411013,-0.884924408495,0.965120488808,-7.71629533597e-06,1.49018530296,0.0288675966224
1572621653977208553,875,1572621653974385976,,kr210_joint_a1,kr210_joint_a2,kr210_joint_a3,kr210_joint_a4,kr210_joint_a5,kr210_joint_a6,1.46134289569,-0.874888765456,0.960272242656,-3.6704254642e-06,1.48502212718,0.0307334081988
1572621654074770535,876,1572621654074357986,,kr210_joint_a1,kr210_joint_a2,kr210_joint_a3,kr210_joint_a4,kr210_joint_a5,kr210_joint_a6,1.45474468994,-0.864853122222,0.955423996411,3.75444486121e-07,1.4798589513,0.0325992198115
1572621654175670917,877,1572621654174411058,,kr210_joint_a1,kr210_joint_a2,kr210_joint_a3,kr210_joint_a4,kr210_joint_a5,kr210_joint_a6,1.44814648413,-0.854817478886,0.950575750116,4.42131447788e-06,1.47469577537,0.0344650314433
1572621654284402519,878,1572621654274452924,,kr210_joint_a1,kr210_joint_a2,kr210_joint_a3,kr210_joint_a4,kr210_joint_a5,kr210_joint_a6,1.44212027487,-0.845651822552,0.946147796883,8.11644917648e-06,1.46998019365,0.0361690964072
1572621654376779978,879,1572621654374380111,,kr210_joint_a1,kr210_joint_a2,kr210_joint_a3,kr210_joint_a4,kr210_joint_a5,kr210_joint_a6,1.43552206926,-0.835616179514,0.941299550732,1.21623190479e-05,1.46481701787,0.0380349079835
1572621654482469642,880,1572621654474373102,,kr210_joint_a1,kr210_joint_a2,kr210_joint_a3,kr210_joint_a4,kr210_joint_a5,kr210_joint_a6,1.42892386351,-0.825580536281,0.936451304486,1.62081889981e-05,1.45965384199,0.0399007195961
1572621654575941548,881,1572621654574378013,,kr210_joint_a1,kr210_joint_a2,kr210_joint_a3,kr210_joint_a4,kr210_joint_a5,kr210_joint_a6,1.42298547828,-0.816548457278,0.932087882821,1.98494719908e-05,1.45500698365,0.0415799500648
1572621654694699872,882,1572621654674376964,,kr210_joint_a1,kr210_joint_a2,kr210_joint_a3,kr210_joint_a4,kr210_joint_a5,kr210_joint_a6,1.41629944844,-0.806379236607,0.927175104956,2.39491936901e-05,1.44977508434,0.0434705961926
1572621654780674292,883,1572621654774353027,,kr210_joint_a1,kr210_joint_a2,kr210_joint_a3,kr210_joint_a4,kr210_joint_a5,kr210_joint_a6,1.40970124261,-0.796343593241,0.922326858647,2.79950636936e-05,1.4446119084,0.0453364078298
1572621654914655827,884,1572621654874372005,,kr210_joint_a1,kr210_joint_a2,kr210_joint_a3,kr210_joint_a4,kr210_joint_a5,kr210_joint_a6,1.40376285736,-0.787311514206,0.917963436966,3.16363466993e-05,1.43996505004,0.0470156383044
1572621654975977135,885,1572621654974385976,,kr210_joint_a1,kr210_joint_a2,kr210_joint_a3,kr210_joint_a4,kr210_joint_a5,kr210_joint_a6,1.39716465153,-0.777275870839,0.913115190656,3.56822167034e-05,1.43480187409,0.0488814499419
1572621655099297752,886,1572621655074429988,,kr210_joint_a1,kr210_joint_a2,kr210_joint_a3,kr210_joint_a4,kr210_joint_a5,kr210_joint_a6,1.39047862207,-0.767106650768,0.908202413081,3.97819381608e-05,1.42956997509,0.0507720959582
1572621655177751156,887,1572621655174458026,,kr210_joint_a1,kr210_joint_a2,kr210_joint_a3,kr210_joint_a4,kr210_joint_a5,kr210_joint_a6,1.38454023704,-0.758074572065,0.90383899156,4.34232210324e-05,1.4249231169,0.052451326371
1572621655316990363,888,1572621655274430990,,kr210_joint_a1,kr210_joint_a2,kr210_joint_a3,kr210_joint_a4,kr210_joint_a5,kr210_joint_a6,1.37794203123,-0.748038928732,0.898990745266,4.74690910231e-05,1.41975994097,0.0543171380023
1572621655375927761,889,1572621655374403953,,kr210_joint_a1,kr210_joint_a2,kr210_joint_a3,kr210_joint_a4,kr210_joint_a5,kr210_joint_a6,1.37134382542,-0.738003285394,0.894142498971,5.15149610155e-05,1.41459676504,0.0561829496343
1572621655481654489,890,1572621655474392890,,kr210_joint_a1,kr210_joint_a2,kr210_joint_a3,kr210_joint_a4,kr210_joint_a5,kr210_joint_a6,1.36494175833,-0.728265962278,0.889438371977,5.54405631991e-05,1.40958707003,0.0579932980219
1572621655594436873,891,1572621655574500083,,kr210_joint_a1,kr210_joint_a2,kr210_joint_a3,kr210_joint_a4,kr210_joint_a5,kr210_joint_a6,1.35635763866,-0.715209812483,0.883130910885,6.07041504841e-05,1.40286989245,0.0604206776464
1572621655705580751,892,1572621655674366950,,kr210_joint_a1,kr210_joint_a2,kr210_joint_a3,kr210_joint_a4,kr210_joint_a5,kr210_joint_a6,1.34839669667,-0.703101494447,0.877281349867,6.55856193597e-05,1.39664035896,0.0626718378237
1572621655784639374,893,1572621655774463891,,kr210_joint_a1,kr210_joint_a2,kr210_joint_a3,kr210_joint_a4,kr210_joint_a5,kr210_joint_a6,1.34401483784,-0.696436838387,0.874061636594,6.82724757031e-05,1.39321150137,0.0639109205992
1572621655891218222,894,1572621655874473094,,kr210_joint_a1,kr210_joint_a2,kr210_joint_a3,kr210_joint_a4,kr210_joint_a5,kr210_joint_a6,1.34345571322,-0.695586429124,0.873650801591,6.86153182295e-05,1.39277397958,0.0640690274031
1572621655986607930,895,1572621655974401950,,kr210_joint_a1,kr210_joint_a2,kr210_joint_a3,kr210_joint_a4,kr210_joint_a5,kr210_joint_a6,1.34345571322,-0.695586429124,0.873650801591,6.86153182295e-05,1.39277397958,0.0640690274031
1572621656089746981,896,1572621656074460983,,kr210_joint_a1,kr210_joint_a2,kr210_joint_a3,kr210_joint_a4,kr210_joint_a5,kr210_joint_a6,1.34345571322,-0.695586429124,0.873650801591,6.86153182295e-05,1.39277397958,0.0640690274031
1572621656175278467,897,1572621656174432992,,kr210_joint_a1,kr210_joint_a2,kr210_joint_a3,kr210_joint_a4,kr210_joint_a5,kr210_joint_a6,1.34345571322,-0.695586429124,0.873650801591,6.86153182295e-05,1.39277397958,0.0640690274031
1572621656282368362,898,1572621656274425029,,kr210_joint_a1,kr210_joint_a2,kr210_joint_a3,kr210_joint_a4,kr210_joint_a5,kr210_joint_a6,1.34345571322,-0.695586429124,0.873650801591,6.86153182295e-05,1.39277397958,0.0640690274031
1572621656387007591,899,1572621656374382019,,kr210_joint_a1,kr210_joint_a2,kr210_joint_a3,kr210_joint_a4,kr210_joint_a5,kr210_joint_a6,1.34458347219,-0.700617960727,0.882338520472,7.53119836561e-17,1.38907576705,0.0653930882556
1572621656493471386,900,1572621656474359989,,kr210_joint_a1,kr210_joint_a2,kr210_joint_a3,kr210_joint_a4,kr210_joint_a5,kr210_joint_a6,1.3458938422,-0.706337862346,0.892338520631,7.53187094916e-17,1.38479566851,0.0666951267205
1572621656601044647,901,1572621656574420928,,kr210_joint_a1,kr210_joint_a2,kr210_joint_a3,kr210_joint_a4,kr210_joint_a5,kr210_joint_a6,1.34709834889,-0.711590764581,0.90150678868,7.53258469797e-17,1.3808803027,0.067894633213
1572621656726844887,902,1572621656674403905,,kr210_joint_a1,kr210_joint_a2,kr210_joint_a3,kr210_joint_a4,kr210_joint_a5,kr210_joint_a6,1.34840706076,-0.71732975291,0.911506788838,7.53351165973e-17,1.37661929087,0.0692033450806
1572621656793215721,903,1572621656774444103,,kr210_joint_a1,kr210_joint_a2,kr210_joint_a3,kr210_joint_a4,kr210_joint_a5,kr210_joint_a6,1.34957173513,-0.722831406496,0.921077801826,7.53485692784e-17,1.37254993147,0.0703680194565
1572621656875034996,904,1572621656874432086,,kr210_joint_a1,kr210_joint_a2,kr210_joint_a3,kr210_joint_a4,kr210_joint_a5,kr210_joint_a6,1.35079670835,-0.728590208364,0.931077142881,7.53635182258e-17,1.36830939228,0.0715929926735
1572621656980432879,905,1572621656974358081,,kr210_joint_a1,kr210_joint_a2,kr210_joint_a3,kr210_joint_a4,kr210_joint_a5,kr210_joint_a6,1.35205715134,-0.734357910501,0.941077142158,7.53779593619e-17,1.36407709514,0.0728534356604
1572621657086483737,906,1572621657074352025,,kr210_joint_a1,kr210_joint_a2,kr210_joint_a3,kr210_joint_a4,kr210_joint_a5,kr210_joint_a6,1.35324513391,-0.739802897722,0.950500186597,7.5392634439e-17,1.36009903792,0.0740414182336
1572621657176900857,907,1572621657174391984,,kr210_joint_a1,kr210_joint_a2,kr210_joint_a3,kr210_joint_a4,kr210_joint_a5,kr210_joint_a6,1.35432640556,-0.745084937278,0.959626995806,7.54105820826e-17,1.35625426827,0.0751226898771
1572621657276748333,908,1572621657274377107,,kr210_joint_a1,kr210_joint_a2,kr210_joint_a3,kr210_joint_a4,kr210_joint_a5,kr210_joint_a6,1.35548543451,-0.750949868241,0.969741020971,7.54333032865e-17,1.35200517407,0.0762817188358
1572621657374709824,909,1572621657374392986,,kr210_joint_a1,kr210_joint_a2,kr210_joint_a3,kr210_joint_a4,kr210_joint_a5,kr210_joint_a6,1.35666103481,-0.756801432566,0.979816472939,7.54560001023e-17,1.34778128642,0.0774573191362
1572621657492101255,910,1572621657474392890,,kr210_joint_a1,kr210_joint_a2,kr210_joint_a3,kr210_joint_a4,kr210_joint_a5,kr210_joint_a6,1.35774564692,-0.76204213646,0.988823465817,7.54758705622e-17,1.34401499744,0.0785419312419
1572621657579282690,911,1572621657574395895,,kr210_joint_a1,kr210_joint_a2,kr210_joint_a3,kr210_joint_a4,kr210_joint_a5,kr210_joint_a6,1.35886150422,-0.767826750544,0.998745835852,7.55021758704e-17,1.33987724149,0.0796577885386
1572621657682185498,912,1572621657674356937,,kr210_joint_a1,kr210_joint_a2,kr210_joint_a3,kr210_joint_a4,kr210_joint_a5,kr210_joint_a6,1.35995062028,-0.773723921367,1.00884402092,7.55318708793e-17,1.33567622724,0.0807469046023
1572621657775331335,913,1572621657774358987,,kr210_joint_a1,kr210_joint_a2,kr210_joint_a3,kr210_joint_a4,kr210_joint_a5,kr210_joint_a6,1.36104339635,-0.779578771296,1.01884402076,7.55621285889e-17,1.33153107733,0.0818396806682
1572621657881197081,914,1572621657874386072,,kr210_joint_a1,kr210_joint_a2,kr210_joint_a3,kr210_joint_a4,kr210_joint_a5,kr210_joint_a6,1.36202872819,-0.784851607366,1.02784402078,7.55896182958e-17,1.32780391338,0.0828250125086
1572621657974648398,915,1572621657974395990,,kr210_joint_a1,kr210_joint_a2,kr210_joint_a3,kr210_joint_a4,kr210_joint_a5,kr210_joint_a6,1.36306628946,-0.79079676711,1.03796209403,7.56250902154e-17,1.32363099987,0.083862573779
1572621658084238546,916,1572621658074376106,,kr210_joint_a1,kr210_joint_a2,kr210_joint_a3,kr210_joint_a4,kr210_joint_a5,kr210_joint_a6,1.36396980891,-0.796089479857,1.04696209405,7.56578776457e-17,1.3199237126,0.084766093227
1572621658181098973,917,1572621658174395084,,kr210_joint_a1,kr210_joint_a2,kr210_joint_a3,kr210_joint_a4,kr210_joint_a5,kr210_joint_a6,1.36504417942,-0.802333746487,1.05755881759,7.5697165221e-17,1.31557125569,0.085840463743
1572621658282627287,918,1572621658274398088,,kr210_joint_a1,kr210_joint_a2,kr210_joint_a3,kr210_joint_a4,kr210_joint_a5,kr210_joint_a6,1.36594121192,-0.807636123131,1.066535923,7.5732129055e-17,1.31189652693,0.0867374962395
1572621658375615235,919,1572621658374413013,,kr210_joint_a1,kr210_joint_a2,kr210_joint_a3,kr210_joint_a4,kr210_joint_a5,kr210_joint_a6,1.36681439449,-0.813425111347,1.07631636651,7.5775713295e-17,1.30790507164,0.0876106788108
1572621658478462244,920,1572621658474387884,,kr210_joint_a1,kr210_joint_a2,kr210_joint_a3,kr210_joint_a4,kr210_joint_a5,kr210_joint_a6,1.36771392754,-0.819354248994,1.08631636654,7.58208717458e-17,1.30383420925,0.088510211865
1572621658579914157,921,1572621658574378967,,kr210_joint_a1,kr210_joint_a2,kr210_joint_a3,kr210_joint_a4,kr210_joint_a5,kr210_joint_a6,1.36861771769,-0.825133288503,1.09604311355,7.58645653756e-17,1.29988650174,0.0894140020072
1572621658675628645,922,1572621658674381017,,kr210_joint_a1,kr210_joint_a2,kr210_joint_a3,kr210_joint_a4,kr210_joint_a5,kr210_joint_a6,1.36943470117,-0.830851464175,1.10564314472,7.59121081602e-17,1.29600464625,0.0902309854958
1572621658777063274,923,1572621658774398088,,kr210_joint_a1,kr210_joint_a2,kr210_joint_a3,kr210_joint_a4,kr210_joint_a5,kr210_joint_a6,1.37023210104,-0.836815738545,1.11564314458,7.59645802511e-17,1.29196892076,0.091028385361
1572621658886730294,924,1572621658874526977,,kr210_joint_a1,kr210_joint_a2,kr210_joint_a3,kr210_joint_a4,kr210_joint_a5,kr210_joint_a6,1.37106289759,-0.842909570665,1.12583314505,7.60185617679e-17,1.28787275241,0.0918591819122
1572621658992971674,925,1572621658974422931,,kr210_joint_a1,kr210_joint_a2,kr210_joint_a3,kr210_joint_a4,kr210_joint_a5,kr210_joint_a6,1.37180367891,-0.848672003155,1.1354534089,7.60721520233e-17,1.28401492105,0.0925999632301
1572621659075134848,926,1572621659074385881,,kr210_joint_a1,kr210_joint_a2,kr210_joint_a3,kr210_joint_a4,kr210_joint_a5,kr210_joint_a6,1.37241986346,-0.854145067078,1.14456481047,7.6127807626e-17,1.28037658341,0.0932161477771
1572621659185971391,927,1572621659174391984,,kr210_joint_a1,kr210_joint_a2,kr210_joint_a3,kr210_joint_a4,kr210_joint_a5,kr210_joint_a6,1.37307375035,-0.859849647331,1.15404883213,7.61857815418e-17,1.276597142,0.0938700346731
1572621659285139011,928,1572621659274379014,,kr210_joint_a1,kr210_joint_a2,kr210_joint_a3,kr210_joint_a4,kr210_joint_a5,kr210_joint_a6,1.37378286148,-0.865907613184,1.1640948592,7.62476182421e-17,1.27260908078,0.0945791458016
1572621659399028699,929,1572621659374378919,,kr210_joint_a1,kr210_joint_a2,kr210_joint_a3,kr210_joint_a4,kr210_joint_a5,kr210_joint_a6,1.37435872869,-0.871954274706,1.17409485907,7.63160554197e-17,1.26865574243,0.0951550130103
1572621659478270483,930,1572621659474375963,,kr210_joint_a1,kr210_joint_a2,kr210_joint_a3,kr210_joint_a4,kr210_joint_a5,kr210_joint_a6,1.37487898841,-0.877504957902,1.18326459642,7.63795831094e-17,1.26503668828,0.0956752727282
1572621659607676202,931,1572621659574373006,,kr210_joint_a1,kr210_joint_a2,kr210_joint_a3,kr210_joint_a4,kr210_joint_a5,kr210_joint_a6,1.37545287914,-0.883574538851,1.19326459644,7.64497421148e-17,1.26110626921,0.0962491634597
1572621659692490946,932,1572621659674377918,,kr210_joint_a1,kr210_joint_a2,kr210_joint_a3,kr210_joint_a4,kr210_joint_a5,kr210_joint_a6,1.37600897274,-0.889314164482,1.20268267468,7.65166842508e-17,1.25742781659,0.0968052570586
1572621659792069901,933,1572621659774385929,,kr210_joint_a1,kr210_joint_a2,kr210_joint_a3,kr210_joint_a4,kr210_joint_a5,kr210_joint_a6,1.37660424864,-0.895415626855,1.21268267485,7.6588031176e-17,1.2535292788,0.0974005329657
1572621659895018615,934,1572621659874351978,,kr210_joint_a1,kr210_joint_a2,kr210_joint_a3,kr210_joint_a4,kr210_joint_a5,kr210_joint_a6,1.37721668469,-0.901684720844,1.22295520792,7.66613688705e-17,1.24952583972,0.0980129690148
1572621659985504624,935,1572621659974354982,,kr210_joint_a1,kr210_joint_a2,kr210_joint_a3,kr210_joint_a4,kr210_joint_a5,kr210_joint_a6,1.37794713705,-0.907714202316,1.23278199394,7.67271173409e-17,1.24572853517,0.0987434213676
1572621660081576384,936,1572621660074379920,,kr210_joint_a1,kr210_joint_a2,kr210_joint_a3,kr210_joint_a4,kr210_joint_a5,kr210_joint_a6,1.37863059594,-0.913241952977,1.24178199406,7.67870353553e-17,1.24225628571,0.0994268802628
1572621660188306548,937,1572621660174380064,,kr210_joint_a1,kr210_joint_a2,kr210_joint_a3,kr210_joint_a4,kr210_joint_a5,kr210_joint_a6,1.37943443443,-0.919393519021,1.25178199419,7.68521298821e-17,1.23840785163,0.100230718749
1572621660278871143,938,1572621660274359941,,kr210_joint_a1,kr210_joint_a2,kr210_joint_a3,kr210_joint_a4,kr210_joint_a5,kr210_joint_a6,1.38028970005,-0.925176533746,1.26114921082,7.69096173227e-17,1.23482364972,0.101085984368
1572621660393540848,939,1572621660374375104,,kr210_joint_a1,kr210_joint_a2,kr210_joint_a3,kr210_joint_a4,kr210_joint_a5,kr210_joint_a6,1.3812912178,-0.931368515287,1.27114921076,7.69679927648e-17,1.23101563132,0.102087502124
1572621660475263430,940,1572621660474683046,,kr210_joint_a1,kr210_joint_a2,kr210_joint_a3,kr210_joint_a4,kr210_joint_a5,kr210_joint_a6,1.38228873449,-0.93754267101,1.28111210921,7.70264045007e-17,1.2272268886,0.10308501881
1572621660578738677,941,1572621660574414968,,kr210_joint_a1,kr210_joint_a2,kr210_joint_a3,kr210_joint_a4,kr210_joint_a5,kr210_joint_a6,1.38344654015,-0.943760764358,1.29110260985,7.70790554723e-17,1.2234544813,0.104242824467
1572621660684736939,942,1572621660674395084,,kr210_joint_a1,kr210_joint_a2,kr210_joint_a3,kr210_joint_a4,kr210_joint_a5,kr210_joint_a6,1.3845356459,-0.949372166125,1.30010260998,7.71247942085e-17,1.22006588294,0.105331930222
1572621660778570159,943,1572621660774425029,,kr210_joint_a1,kr210_joint_a2,kr210_joint_a3,kr210_joint_a4,kr210_joint_a5,kr210_joint_a6,1.38575400142,-0.955695732281,1.31021971431,7.71770743045e-17,1.21627234476,0.106550285738
1572621660885867257,944,1572621660874385118,,kr210_joint_a1,kr210_joint_a2,kr210_joint_a3,kr210_joint_a4,kr210_joint_a5,kr210_joint_a6,1.38717162697,-0.962032074595,1.32032638081,7.72208507273e-17,1.21250202058,0.107967911289
1572621661001180323,945,1572621660974375963,,kr210_joint_a1,kr210_joint_a2,kr210_joint_a3,kr210_joint_a4,kr210_joint_a5,kr210_joint_a6,1.38846042028,-0.967628406574,1.32922452384,7.72580648212e-17,1.20920020953,0.109256704604
1572621661108226420,946,1572621661074353933,,kr210_joint_a1,kr210_joint_a2,kr210_joint_a3,kr210_joint_a4,kr210_joint_a5,kr210_joint_a6,1.38999701036,-0.974262792116,1.33975410037,7.73019132913e-17,1.20530501854,0.110793294684
1572621661182291632,947,1572621661174369096,,kr210_joint_a1,kr210_joint_a2,kr210_joint_a3,kr210_joint_a4,kr210_joint_a5,kr210_joint_a6,1.39153958298,-0.980098950372,1.34898316942,7.73318557076e-17,1.20191210775,0.112335867297
1572621661293828924,948,1572621661274373054,,kr210_joint_a1,kr210_joint_a2,kr210_joint_a3,kr210_joint_a4,kr210_joint_a5,kr210_joint_a6,1.39319500582,-0.986209170679,1.35862567709,7.73613609467e-17,1.19837982039,0.113991290143
1572621661382665113,949,1572621661374392032,,kr210_joint_a1,kr210_joint_a2,kr210_joint_a3,kr210_joint_a4,kr210_joint_a5,kr210_joint_a6,1.39475156098,-0.991930305574,1.36762567702,7.73886987606e-17,1.19510095534,0.115547845297
1572621661494487265,950,1572621661474407911,,kr210_joint_a1,kr210_joint_a2,kr210_joint_a3,kr210_joint_a4,kr210_joint_a5,kr210_joint_a6,1.39673267443,-0.998410777421,1.3777931196,7.74094343651e-17,1.19141398461,0.117528958749
1572621661581169124,951,1572621661574394941,,kr210_joint_a1,kr210_joint_a2,kr210_joint_a3,kr210_joint_a4,kr210_joint_a5,kr210_joint_a6,1.39854489051,-1.00416294393,1.38679311963,7.74252038263e-17,1.1881661511,0.119341174829
1572621661688936611,952,1572621661674380064,,kr210_joint_a1,kr210_joint_a2,kr210_joint_a3,kr210_joint_a4,kr210_joint_a5,kr210_joint_a6,1.40063617949,-1.01077114654,1.39710100408,7.74426580343e-17,1.18446646925,0.121432463808
1572621661827368003,953,1572621661774377107,,kr210_joint_a1,kr210_joint_a2,kr210_joint_a3,kr210_joint_a4,kr210_joint_a5,kr210_joint_a6,1.40283895335,-1.01692834939,1.40667557868,7.7446623008e-17,1.1810490975,0.123635237673
